id,latitude,longitude,name,ref,network,operator
82565681,-34.5884975,-58.4721457,Chorroarín y Ávalos,,,
82582305,-34.5748425,-58.4872911,Estación Urquiza,,,
177188680,-34.5486005,-58.4397367,Paseo de las Américas,,,
180484518,-34.6195536,-58.3686913,Humberto I,,,
181154481,-34.5766676,-58.4097138,Plaza Alemania,,,
196280578,-34.5615563,-58.4439772,Libertador y Virrey del Pino,,,
199475764,-34.6042763,-58.435872,Patricias Argentinas y Ángel Gallardo,,,
206114760,-34.632921,-58.375821,Montes de Oca y Uspallata,,,
232826947,-34.682572,-58.48151,Piedrabuena,,,
241976115,-34.5984045,-58.5224356,Lynch,,,
243784701,-34.6986846,-58.4707309,Avelino Díaz y General Paz,,,
247909592,-34.5479994,-58.4921543,Avenida General Paz,,,
247921769,-34.5491748,-58.4308451,Rodizzio,,,
247921770,-34.5489538,-58.4309316,Rodizzio,,,
247921778,-34.5455969,-58.431161,Tierra Santa,,,
247921785,-34.5428121,-58.4353137,Parque de la Memoria,,,
247921796,-34.54409,-58.4383231,Pabellón 1 / Parque Norte,,,
249802328,-34.7251898,-58.5141784,Puente 12,,,
249807463,-34.6841454,-58.489439,Villa Madero,,,
288598829,-34.5585364,-58.5246407,Sáenz Peña y M.T. de Alvear,,,
290559083,-34.6447962,-58.5425283,Díaz Vélez y Acha,,,
298889272,-34.6626879,-58.5167739,Alberdi,,,
298890275,-34.6618098,-58.5191155,Alberdi,,,
311308554,-34.5830277,-58.4076196,Parque Las Heras,,,
313238996,-34.6171147,-58.5412844,Alvear y Pascal,,,
313440058,-34.6982988,-58.4708602,General Paz y Roca,,,
313440759,-34.5988839,-58.5233713,Lynch,,,
313662098,-34.6948663,-58.4762825,Roosvelt y Pintos,,,
313662311,-34.6950014,-58.4761769,Pintos y Roosevelt,,,
314458507,-34.5976861,-58.5230018,Lynch,,,
316323952,-34.6517756,-58.4159545,Plaza Nueva Pompeya,,,
316491381,-34.7054269,-58.4999083,Mercado Central,,,
316524023,-34.7033223,-58.4982317,Escuela 139,,,
316539456,-34.7004018,-58.4938431,Unanué y San Martín,,,
316539549,-34.7039799,-58.4959439,Convención y Chilavert,,,
316732133,-34.7212884,-58.512092,Ricchieri y Cochrane,,,
316992544,-34.7090671,-58.529341,Ciudad Evita,,,
316992570,-34.7001746,-58.5419168,Rotonda de Tablada,,,
321141696,-34.6908411,-58.4988102,Vélez y Junín,,,
346461251,-34.5203615,-58.5143848,Echeverría y Sáenz Peña,,,
352880808,-34.5115673,-58.5210169,Debenedetti,,,
355820001,-34.5824205,-58.5157848,Miguelete,,,
437564736,-34.6307372,-58.4007414,Avenida Brasil,,,
454385647,-34.5791188,-58.4186926,Plaza Italia,10,,
454516942,-34.5843279,-58.3896398,Facultad de Derecho,,,
454519419,-34.6078498,-58.3726327,Plaza de Mayo,1,,
454522943,-34.6089546,-58.38845,Congreso,2,,
454524039,-34.6124933,-58.3710665,Belgrano y Balcarce,3,,
454524324,-34.617475,-58.3695593,San Telmo,4,,
454528781,-34.6160116,-58.3568428,Reserva Ecológica,6,,
454531932,-34.5933671,-58.3748028,Plaza San Martín,,,
469245421,-34.6904269,-58.4653692,Plaza Democracia,,,
471186176,-34.5958973,-58.3950885,Santa Fe y Riobamba,,,
472713944,-34.589244,-58.5181442,Avenida San Martín,,,
481089080,-34.5370052,-58.518076,Yrigoyen y Alvear,,,
497268930,-34.623576,-58.3420398,Central Costanera,,,
601202378,-34.6347627,-58.5255257,Madero y Juan B. Justo,,,
609952524,-34.6856863,-58.5194019,Crovara y Lambaré,,,
615018606,-34.5811804,-58.4037871,Libertador y Ocampo,,,
649544097,-34.5805521,-58.4202922,Plaza Italia,,,
667545730,-34.5858757,-58.3738333,Terminal de Ómnibus Retiro,,,
710551773,-34.7320089,-58.5230913,Rotonda Ciudad Evita,,,
775599501,-34.5844572,-58.3930376,Recoleta,22,,
843797842,-34.5056825,-58.5085268,Díaz Vélez y España,,,
946186894,-34.5491459,-58.5004564,General Paz,,,
946186907,-34.5492206,-58.5005955,General Paz,,,
981707362,-34.5387152,-58.5139843,San Martín y Pellegrini,,,
997201851,-34.5240228,-58.5270982,Terminal Munro,,,
1074582078,-34.5701709,-58.412903,Planetario,,,
1107910423,-34.5984274,-58.5223501,Lynch,,,
1107910431,-34.5988611,-58.5234114,Lynch,,,
1107910441,-34.5976259,-58.5230352,Lynch,,,
1118064469,-34.6097091,-58.3916124,Congreso,,,
1118064471,-34.6102837,-58.3906586,Congreso,,,
1137419664,-34.5860339,-58.4546515,Lacroze,,,
1147380728,-34.5036963,-58.4975081,Bermúdez y Garay,,,
1147382952,-34.5027358,-58.495381,Bermúdez y Maipú,,,
1147388669,-34.5036824,-58.4997069,Gardel y Quintana,,,
1147396698,-34.5155583,-58.4884179,Est. B. Mitre,,,
1147406399,-34.5011979,-58.4990459,Juan de Garay y Díaz Vélez,,,
1147406401,-34.502086,-58.5007573,Díaz Vélez y De la Quintana,,,
1282173648,-34.5942091,-58.3764452,Retiro,,,
1286992191,-34.5912823,-58.3734136,Retiro,,,
1286992353,-34.5872583,-58.3677326,Edificio Libertad,,,
1287085907,-34.585921,-58.3721464,Antártida Argentina y Luisoni,,,
1306391025,-34.5978887,-58.5207992,Segurola y Mosconi,,,
1422573900,-34.6062287,-58.4388298,Marechal y Machado,,,
1435016190,-34.5939665,-58.393012,Callao y Juncal,,,
1458010939,-34.5941477,-58.3901064,Plaza Vicente López,,,
1458010955,-34.5929981,-58.3887104,Plaza Vicente López,,,
1458010959,-34.596166,-58.3882867,Avenida Santa Fe,,,
1458010961,-34.5957099,-58.3894812,Santa Fe y Montevideo,,,
1458010962,-34.5956888,-58.3889496,Santa Fe y Parana,,,
1458010963,-34.5957021,-58.3892853,Santa Fe y Montevideo,,,
1458010969,-34.59572,-58.3897359,Santa Fe y Montevideo,,,
1490042319,-34.5957529,-58.3916509,Santa Fe y Rodríguez Peña,,,
1490042321,-34.5958996,-58.3920499,Santa Fe y Rodriguez Peña,,,
1490042323,-34.5979802,-58.3929919,Plaza Rodriguez Peña,,,
1490042327,-34.5979022,-58.3918106,Plaza Rodriguez Peña,,,
1490042329,-34.5957427,-58.3912743,Santa Fe y Rodríguez Peña,,,
1490042330,-34.5978003,-58.3930156,Plaza Rodriguez Peña,,,
1490042340,-34.5957687,-58.392903,Avenida Callao,,,
1490042343,-34.5959549,-58.3889942,Santa Fe y Paraná,,,
1490044728,-34.5954165,-58.3932037,Callao y Santa Fe,,,
1490044730,-34.5957617,-58.3925491,Avenida Callao,,,
1490044732,-34.5974508,-58.3930564,Plaza Rodriguez Peña,,,
1490044733,-34.5976263,-58.3930388,Plaza Rodriguez Peña,,,
1490044735,-34.5957613,-58.3922158,Santa Fe y Rodriguez Peña,,,
1490044738,-34.5956518,-58.3920238,Avenida Santa Fe,,,
1490044740,-34.5959346,-58.3887917,Santa Fe y Paraná,,,
1490044741,-34.5959226,-58.3927878,Santa Fe y Callao,,,
1493476694,-34.6198713,-58.3685866,Humberto I,,,
1493476757,-34.6273505,-58.3817621,Plaza Constitución,,,
1506462591,-34.6422434,-58.53185,Pereyra y Luchter,,,
1506462594,-34.6448996,-58.5333578,Amoretti y Rucci,,,
1506462607,-34.6445163,-58.5343185,Estero Bellaco y Rucci,,,
1506517988,-34.597116,-58.39479,Riobamba y Marcelo T de Alvear,,,
1610630457,-34.5832419,-58.396548,Biblioteca Nacional,,,
1610630463,-34.5833149,-58.396237,Biblioteca Nacional,,,
1610649355,-34.5852509,-58.3888696,Palais de Glace,,,
1611770975,-34.630516,-58.5264177,Madero y Lascano,,,
1624654850,-34.6263593,-58.3593204,,,,
1627733883,-34.6072954,-58.4061083,Pueyrredón y Sarmiento,,,
1627733885,-34.6076052,-58.4061252,Pueyrredón y Sarmiento,,,
1627734550,-34.6090586,-58.4064674,Plaza Miserere,,,
1629199777,-34.6347307,-58.5270949,J.B. Justo y Gana,,,
1630132428,-34.590676,-58.3724891,Retiro,,,
1637215891,-34.5805274,-58.4204349,Plaza Italia,,,
1637215894,-34.5806488,-58.4201822,Plaza Italia,,,
1637215896,-34.5801145,-58.4200503,Plaza Italia,,,
1637215897,-34.5802071,-58.4201458,Plaza Italia,,,
1637215898,-34.5801745,-58.4201122,Plaza Italia,,,
1637215900,-34.5803463,-58.4202734,Plaza Italia,,,
1637215901,-34.5800422,-58.4199787,Plaza Italia,,,
1637240272,-34.5860977,-58.3763082,Terminal Retiro,,,
1639074831,-34.655678,-58.3745685,Puente Pueyrredón,,,
1639075045,-34.6601655,-58.3706975,Plaza Barracas Iglesias,,,
1639093690,-34.6600825,-58.3742588,Carrefour Avellaneda,,,
1642380283,-34.6605848,-58.3868219,Pellegrini y Fernández,,,
1642380327,-34.6618555,-58.385985,Oliden y Rivero,,,
1642974376,-34.6090483,-58.4071505,Plaza Miserere,,,
1642974415,-34.6091079,-58.4078552,Plaza Miserere,,,
1642974457,-34.6091366,-58.408163,Plaza Miserere,,,
1642974503,-34.6089998,-58.4066047,Plaza Miserere,,,
1642974539,-34.609106,-58.4064617,Plaza Miserere,,,
1643728313,-34.6101018,-58.4071686,Plaza Miserere,,,
1659162344,-34.5986846,-58.4367334,Scalabrini Ortiz y Ramírez de Velasco,,,
1659207446,-34.5988378,-58.4369843,Scalabrini Ortiz y Ramírez de Velasco,,,
1731838314,-34.579411,-58.4907841,Olazábal y Burela,,,
1801726719,-34.614985,-58.4525052,Fragata Sarmiento y Arengreen,,,
1885388661,-34.6103021,-58.5302015,Reverenda Isabel Fernández,,,
1886240514,-34.6022436,-58.5129796,Est. Devoto (FCSM),,,
1942601853,-34.5879664,-58.390352,Bus Turistico Parada 24,24,,
1953009841,-34.7093737,-58.5049216,Estación Castello,,,
1965957226,-34.5034465,-58.4949046,Maipú y Jose Ingenieros,,,
1967837804,-34.5043637,-58.4944006,Maipú y San Lorenzo,,,
1967837808,-34.5045502,-58.4939497,Maipú y San Lorenzo,,,
2025893527,-34.5550102,-58.4908958,Balbín y Mariano Acha,,,
2025893528,-34.5547125,-58.4889849,Donado y Balbín,,,
2025893529,-34.5290207,-58.4867228,Roca y Chacabuco,,,
2025893530,-34.5307377,-58.4903751,Roca y España,,,
2025893531,-34.5301612,-58.4891936,Roca y General Paz,,,
2025901919,-34.5955922,-58.4511651,Muñecas y Dorrego,,,
2025901922,-34.5957161,-58.4453037,Camargo y Juan B. Justo,,,
2025901926,-34.5919914,-58.449244,Guzmán y Leiva,,,
2025901929,-34.5736269,-58.4852423,Monroe y Díaz Colodrero,,,
2025901930,-34.58195,-58.4727775,Triunvirato al 3600,,,
2025901932,-34.5775468,-58.4811902,Triunvirato y Juramento,,,
2025901933,-34.580944,-58.4744706,Avenida de Los Incas,,,
2025901934,-34.575788,-58.4837879,Triunvirato y Olazábal,,,
2025901937,-34.5791459,-58.4784651,Triunvirato y La Pampa,,,
2025901938,-34.5723714,-58.4865346,Díaz Colodrero y Cullen,,,
2025901939,-34.5597399,-58.487855,Plaza Alberdi,,,
2025901940,-34.549246,-58.4831992,Ruiz Huidobro y Roque Pérez,,,
2025901943,-34.5623175,-58.4901717,Núñez y Valdenegro,,,
2025901949,-34.5694881,-58.4888507,Díaz Colodrero y Congreso,,,
2025901950,-34.5830579,-58.4692933,Avenida Chorroarín,,,
2025901951,-34.5973833,-58.4434248,Camargo y Serrano,,,
2025901952,-34.5872713,-58.454124,Lacroze,,,
2025901953,-34.5900025,-58.4513913,Guzmán y Newbery,,,
2025902814,-34.5954677,-58.3839721,Santa Fe y Libertad,,,
2025905685,-34.5956546,-58.3879616,Santa Fe y Paraná,,,
2025905686,-34.5930834,-58.3928016,Callao y Pacheco de Melo,,,
2025905687,-34.5878134,-58.3966444,Facultad de Ingeniería,,,
2025905689,-34.5775981,-58.4274068,Regimiento de Patricios,,,
2025905693,-34.5828378,-58.4077611,Parque Las Heras,,,
2025905694,-34.5817861,-58.4119049,Avenida Scalabrini Ortiz,,,
2025905695,-34.5644365,-58.441162,T.García y L.M.Campos,,,
2025905697,-34.5672022,-58.4436438,Teodoro García y 11 de Septiembre,,,
2025905698,-34.5654732,-58.4401275,Luis María Campos y Lacroze,,,
2025905710,-34.5674989,-58.4378156,Solar de la Abadía,,,
2025909923,-34.5081979,-58.4796199,Libertador y Corrientes,,,
2025909925,-34.5164636,-58.4760744,Libertador e Yrigoyen,,,
2025909926,-34.5013436,-58.4825917,Libertador y Roma,,,
2025909932,-34.5061711,-58.4804245,Libertador y Alberdi,,,
2025909937,-34.51409,-58.4770548,Libertador y Malaver,,,
2025909938,-34.5181348,-58.4797567,Yrigoyen y Madero,,,
2025913415,-34.5682556,-58.4431084,Lacroze y 11 de Septiembre,,,
2025913417,-34.5655938,-58.4405495,Lacroze y Luis María Campos,,,
2025913443,-34.5696476,-58.4444745,Lacroze y Cabildo,,,
2025920239,-34.5864943,-58.3984704,Las Heras y Laprida,,,
2025920241,-34.5682451,-58.4375579,Solar de la Abadía,,,
2025920242,-34.5896245,-58.3946703,Las Heras y Uriburu,,,
2025920243,-34.5913123,-58.3925758,Las Heras y Callao,,,
2025920245,-34.5698199,-58.436239,Hospital Militar,,,
2025920247,-34.5740624,-58.4322122,Avenida Dorrego,,,
2025920248,-34.5957426,-58.3849645,Santa Fe y Talcahuano,,,
2025920255,-34.5818353,-58.414731,Las Heras y Siria,,,
2025920258,-34.5840943,-58.4011483,Hospital Rivadavia,,,
2083991401,-34.6381684,-58.5299707,Puente Liniers,,,
2090328173,-34.7029174,-58.493077,Ugarte y Ojos del Salado,,,
2090586700,-34.5393357,-58.4755502,Puente Saavedra,,,
2090586716,-34.5368702,-58.4759374,Estación de Trasbordo Puente Saavedra,,,
2090587121,-34.5384092,-58.4761162,Puente Saavedra,,,
2126916047,-34.7099506,-58.5342888,Est. José Ingenieros,,,
2135080661,-34.6223544,-58.4022656,Humberto I y Jujuy,,,
2150309047,-34.5842469,-58.4778603,Ávalos y Los Incas,,,
2150559126,-34.5671436,-58.4123486,Comando de Operaciones Aéreas,,,
2152938093,-34.56325,-58.4372131,Estación Lisandro de la Torre,,,
2153043364,-34.5745764,-58.4160589,Monumento de los Españoles,,,
2153055699,-34.5754641,-58.4154405,Monumento a los Españoles,,,
2153055701,-34.5756239,-58.4135417,Libertador y La India,,,
2153055702,-34.5755173,-58.4156107,Monumento a los Españoles,,,
2153257488,-34.6459193,-58.4508702,Cementerio de Flores,,,
2176618677,-34.6192883,-58.5314588,General Paz,,,
2267205858,-34.7084638,-58.5329236,Hospital Materno Balestrini,,,
2267270114,-34.7090001,-58.5292438,Ciudad Evita,,,
2267270150,-34.7091389,-58.5296043,Ciudad Evita,,,
2267880176,-34.7066636,-58.5401038,La Quila y La Mulita,,,
2267880191,-34.7103412,-58.5341214,Est. José Ingenieros,,,
2267880416,-34.7130737,-58.5347436,Villa Rossi,,,
2267880418,-34.7130946,-58.5344125,Villa Rossi,,,
2267880896,-34.7061968,-58.5330067,Hospital Materno Balestrini,,,
2276892957,-34.5548073,-58.5027199,Villa Martelli,,,
2288456571,-34.5490342,-58.4831966,Roque Pérez y Ruiz Huidobro,,,
2299724276,-34.5979842,-58.4352597,Aguirre y Scalabrini Ortiz,,,
2299724283,-34.5986916,-58.4363171,Avenida Scalabrini Ortíz,,,
2306944239,-34.5475424,-58.4906297,Phillips,,,
2307164276,-34.5418643,-58.4456834,Ciudad Universitaria,,,
2307171646,-34.5421912,-58.4448296,Pabellón 3,,,
2307171653,-34.5454733,-58.4395313,Pabellón 1,,,
2320297296,-34.5375621,-58.475547,Terminal Saavedra,,,
2328495876,-34.5368499,-58.4761921,Estación de Trasbordo Puente Saavedra,,,
2328495877,-34.5367999,-58.475927,Estación de Trasbordo Puente Saavedra,,,
2328495918,-34.5377061,-58.4756995,Terminal Saavedra,4,,
2331281077,-34.7400515,-58.3981368,Vieytes e Yrigoyen,,,
2340096739,-34.5810581,-58.4741215,Los Incas y Triunvirato,,,
2340096740,-34.5815331,-58.4745339,Los Incas y Triunvirato,,,
2351661037,-34.6297095,-58.4944994,Carrasco y Juan B. Justo,,,
2351661939,-34.629425,-58.495091,Carrasco y Juan B. Justo,,,
2351662449,-34.6315835,-58.4921092,Carrasco y Aranguren,,,
2351662450,-34.6313782,-58.4925905,Carrasco y Aranguren,,,
2351665211,-34.6336967,-58.4896382,Carrasco y Bacacay,,,
2351665212,-34.6332788,-58.4899717,Carrasco y Avellaneda,,,
2351666768,-34.6306257,-58.4937213,Morón y Carrasco,,,
2353040218,-34.5475085,-58.490571,Phillips,,,
2353040248,-34.5483613,-58.4963568,General Paz 3100,,,
2353674560,-34.6292244,-58.4884026,Segurola y Aranguren,,,
2354397465,-34.542312,-58.4842491,Ayacucho - Freire,,,
2355607809,-34.7457881,-58.3935724,Alsina y Chacabuco,,,
2358513180,-34.5441791,-58.4963271,Panamericana,,,
2366554371,-34.5435121,-58.4965619,Laprida,,,
2366554382,-34.5438116,-58.4954581,Laprida,,,
2372873110,-34.5146764,-58.5189723,San Lorenzo,,,
2372873111,-34.5147591,-58.5202493,San Lorenzo,,,
2372873112,-34.5271267,-58.5077681,Malaver,,,
2372873113,-34.527554,-58.5084635,Malaver,,,
2372873114,-34.5379483,-58.5012002,Melo,,,
2372873115,-34.538125,-58.5000521,Melo,,,
2372873116,-34.5190212,-58.5144198,Pelliza,,,
2372873117,-34.5193494,-58.5151506,Pelliza,,,
2372873118,-34.5339544,-58.5029229,San Martín,,,
2372873119,-34.5343751,-58.5036632,San Martín,,,
2372873120,-34.52304,-58.5107598,Ugarte,,,
2372873121,-34.5234067,-58.5114938,Ugarte,,,
2372873131,-34.5146566,-58.5189442,San Lorenzo,,,
2372873162,-34.5230289,-58.5107183,Ugarte,,,
2372873171,-34.5234295,-58.5115154,Ugarte,,,
2372873228,-34.5343965,-58.503688,San Martín,,,
2374478818,-34.5075867,-58.5322783,Edison,,,
2374478819,-34.5077179,-58.5303723,Edison,,,
2374478820,-34.5044487,-58.5371383,Fondo de la Legua,,,
2374478821,-34.5051658,-58.5372901,Fondo de la Legua,,,
2374478822,-34.5099808,-58.5257033,Paraná,,,
2374478823,-34.5104099,-58.5265975,Paraná,,,
2374478833,-34.5044229,-58.5371199,Fondo de la Legua,,,
2374478844,-34.5051815,-58.5373073,Fondo de la Legua,,,
2374478860,-34.507611,-58.5322932,Edison,,,
2374478864,-34.5076998,-58.5303535,Edison,,,
2379693849,-34.6022073,-58.5132415,Est. Devoto (FCSM),,,
2379693854,-34.601872,-58.5128657,Est. Devoto (FCSM),,,
2384907561,-34.611311,-58.4391757,Acoyte y Vallese,,,
2384907564,-34.5979387,-58.4506588,Rosas y Darwin,,,
2384907565,-34.6111532,-58.4392509,Acoyte y Vallese,,,
2384907566,-34.6111033,-58.4390744,Acoyte y Vallese,,,
2384907568,-34.61204,-58.4386506,Acoyte y Vallese,,,
2390257220,-34.602899,-58.5248853,General Paz,,,
2390257222,-34.5948081,-58.5030703,Nueva York y San Martín,,,
2390257223,-34.5999687,-58.5171006,Sanabria y Habana,,,
2390257225,-34.6002767,-58.5209108,Vallejos y Marcos Paz,,,
2390257226,-34.5987823,-58.5184346,Vallejos y Lincoln,,,
2390257227,-34.6013952,-58.5157636,Sanabria y Del Carril,,,
2390257228,-34.6018275,-58.5234101,Vallejos y Allende,,,
2390257229,-34.6015938,-58.5139539,Nueva York y Gualeguaychú,,,
2390257230,-34.5998749,-58.511112,Hospital Zubizarreta,,,
2390257231,-34.5973827,-58.5070509,Nueva York y Lamarca,,,
2392302882,-34.5553761,-58.4488234,Instituto Santa Ana,,,
2392302883,-34.5553326,-58.4487383,Instituto Santa Ana,,,
2392302888,-34.5578437,-58.4546847,O'Higgins y Olazábal,,,
2392302889,-34.557868,-58.4547245,O'Higgins y Olazábal,,,
2417265435,-34.6336328,-58.5195308,Vélez Sarsfield,,,
2417266236,-34.6331949,-58.5200065,Vélez Sarsfield,,,
2433252087,-34.5801233,-58.4198876,Plaza Italia,,,
2433252088,-34.5801948,-58.4199553,Plaza Italia,,,
2433252089,-34.5802789,-58.4200365,Plaza Italia,,,
2433252092,-34.5804204,-58.4201669,Plaza Italia,,,
2438990828,-34.6558571,-58.4385331,Varela,,,
2466174594,-34.5509951,-58.4407868,Escuela Colombo,,,
2470337241,-34.5629197,-58.4583258,Juramento y Amenábar,,,
2471708326,-34.7480723,-58.3942322,Alsina y Medrano,,,
2487511589,-34.5616544,-58.4488328,Pampa y 11 de septiembre,,,
2487511590,-34.5617069,-58.4487922,Pampa y 11 de septiembre,,,
2489469446,-34.5357004,-58.4682648,Estación Rivadavia,,,
2489469457,-34.535915,-58.4681593,Estación Rivadavia,,,
2489469648,-34.5631496,-58.4560751,Echeverría y Cabildo,,,
2489469715,-34.5590505,-58.4497589,Barrancas de Belgrano,,,
2489469717,-34.562149,-58.4543762,Plaza Belgrano,,,
2489469727,-34.5589702,-58.4499132,Barrancas de Belgrano,,,
2489469729,-34.5609223,-58.4523121,Echeverría y O'Higgins,,,
2489470142,-34.5593885,-58.4491673,Barrancas de Belgrano,,,
2489470279,-34.5595713,-58.4488538,Barrancas de Belgrano,,,
2490538491,-34.5588811,-58.4495595,Barrancas de Belgrano,,,
2490538493,-34.5595108,-58.4487886,Barrancas de Belgrano,,,
2490538494,-34.5584461,-58.4482572,Estación Belgrano C,,,
2490538496,-34.5631071,-58.4560952,Echeverría y Cabildo,,,
2490538497,-34.5621042,-58.4544085,Plaza Belgrano,,,
2490538498,-34.5608845,-58.4523385,Echeverría y O'Higgins,,,
2490538499,-34.5593147,-58.4491176,Barrancas de Belgrano,,,
2497637095,-34.7062847,-58.4789248,Barrio Sarmiento,,,
2498053349,-34.575832,-58.4136949,Libertador y La India,,,
2511119728,-34.5612722,-58.4555537,Barrio Chino,6,,
2522732467,-34.5680035,-58.4852524,Le Breton y Valdenegro,,,
2578919505,-34.576387,-58.4484282,Lacroze y Zapiola,,,
2579154511,-34.575726,-58.4483171,Lacroze y Zapiola,,,
2579154512,-34.5749178,-58.4474261,Conesa y Lacroze,,,
2579154513,-34.5779304,-58.4496084,Conde y Lacroze,,,
2586693879,-34.7079139,-58.5455604,El Tiburón y Catulo Castillo,,,
2596167106,-34.5979261,-58.5208422,Segurola y Mosconi,,,
2596167316,-34.6017974,-58.523438,Vallejos y Allende,,,
2596167365,-34.600257,-58.520921,Vallejos y Marcos Paz,,,
2596167386,-34.5987511,-58.5184604,Vallejos y Lincoln,,,
2596167419,-34.602879,-58.5248802,General Paz,,,
2597656176,-34.5579025,-58.4521627,Mendoza y 11 de Septiembre,,,
2597656177,-34.5579443,-58.4521295,Mendoza y 11 de Septiembre,,,
2597749320,-34.5395153,-58.4657299,Ramallo y 11 de Septiembre,,,
2597749392,-34.5415662,-58.4697742,Plaza Lima,,,
2597749462,-34.5416249,-58.4700017,Plaza Lima,,,
2597749595,-34.5428684,-58.4724634,Ramallo y Cabildo,,,
2597749626,-34.5428996,-58.4724392,Ramallo y Cabildo,,,
2598476243,-34.5056449,-58.5085516,Díaz Vélez y España,,,
2598476250,-34.5066459,-58.5080392,Debenedetti y España,,,
2607223142,-34.5395848,-58.4750564,Puente Saavedra,,,
2607403053,-34.5406354,-58.4751655,San Isidro y Pico,,,
2607403082,-34.5406531,-58.4752187,San Isidro y Pico,,,
2607403123,-34.5397538,-58.4644218,Libertador y Correa,,,
2607403137,-34.5397914,-58.4645158,Libertador y Correa,,,
2607403140,-34.5541666,-58.4498614,Libertador y Blanco Encalada,,,
2607403141,-34.5542298,-58.4499274,Libertador y Blanco Encalada,,,
2608857413,-34.5450861,-58.4877422,Dot,,,
2608857414,-34.5451466,-58.4877008,Dot,,,
2608857415,-34.5441176,-58.4858985,Vedia y Superí,,,
2608857416,-34.5441732,-58.485862,Vedia y Superí,,,
2608857420,-34.5431584,-58.4840654,Vedia y Freire,,,
2608858372,-34.5432019,-58.4840338,Vedia y Freire,,,
2608858453,-34.5419142,-58.4809457,Vedia y Zapiola,,,
2608858513,-34.5419684,-58.4809234,Vedia y Zapiola,,,
2608988700,-34.539297,-58.4755739,Puente Saavedra,,,
2608988769,-34.538459,-58.4760865,Puente Saavedra,,,
2608988897,-34.5403964,-58.4803294,Platense,,,
2608988942,-34.5403439,-58.4803576,Platense,,,
2608988971,-34.5424018,-58.4841986,Ayacucho - Freire,,,
2608995134,-34.5394757,-58.4657523,Ramallo y 11 de Septiembre,,,
2609947364,-34.5595325,-58.4545555,Arcos y Mendoza,,,
2609947449,-34.5595155,-58.454519,Arcos y Mendoza,,,
2609947497,-34.5598606,-58.4557345,Cuba y Mendoza,,,
2609947592,-34.5598329,-58.4556835,Cuba y Mendoza,,,
2612252881,-34.5613496,-58.4552994,Plaza Belgrano,,,
2612252882,-34.5610803,-58.455033,Plaza Belgrano,,,
2612252883,-34.5611396,-58.4549335,Plaza Belgrano,,,
2612252884,-34.5609922,-58.4548839,Plaza Belgrano,,,
2612252885,-34.5610656,-58.4547865,Plaza Belgrano,,,
2613446450,-34.5584644,-58.4501572,Barrancas de Belgrano,,,
2613446451,-34.5588348,-58.4495352,Barrancas de Belgrano,,,
2614275316,-34.5385949,-58.4767178,Puente Saavedra,,,
2614275317,-34.5386441,-58.4766825,Puente Saavedra,,,
2620352924,-34.542765,-58.4429703,Pabellón 2,,,
2620452103,-34.542378,-58.4444721,Ciudad Universitaria,,,
2620563335,-34.6011477,-58.3816596,Teatro Colón,,,
2620563336,-34.6070497,-58.3813524,Juan D. Perón,,,
2620563338,-34.6182991,-58.3807888,Independencia,,,
2622650826,-34.5999202,-58.4517554,Honorio Pueyrredón,,,
2622650845,-34.6003074,-58.4523853,Honorio Pueyrredón,,,
2622731710,-34.6111979,-58.4676449,Boyacá,,,
2622736582,-34.6141697,-58.472486,Artigas,,,
2622736589,-34.6148228,-58.4728769,Artigas,,,
2622736598,-34.6114316,-58.4681437,Boyacá,,,
2622736599,-34.6218745,-58.4805692,Concordia,,,
2622736600,-34.6222239,-58.4810073,Concordia,,,
2622736601,-34.59458,-58.4440112,Corrientes,,,
2622736602,-34.5949307,-58.4445813,Corrientes,,,
2622736603,-34.6071793,-58.4624049,Donato Álvarez,,,
2622736604,-34.6075495,-58.4630072,Donato Álvarez,,,
2622736605,-34.5969338,-58.4474178,Murillo,,,
2622736606,-34.5972448,-58.4479214,Murillo,,,
2622736607,-34.6178312,-58.4758584,Nazca,,,
2622736608,-34.6183323,-58.4763304,Nazca,,,
2622736609,-34.6042585,-58.4581501,San Martín,,,
2622736610,-34.6047252,-58.4588339,San Martín,,,
2622737585,-34.5920966,-58.4404536,Aguirre,,,
2622737586,-34.5924139,-58.4409512,Aguirre,,,
2622737587,-34.5851855,-58.4344795,Honduras,,,
2622737588,-34.5855169,-58.4349856,Honduras,,,
2622738188,-34.5816732,-58.4298044,Guatemala,,,
2622738207,-34.582067,-58.4303011,Guatemala,,,
2624337386,-34.5454061,-58.439514,Pabellón 1,,,
2624337387,-34.5454059,-58.4395422,Pabellón 1,,,
2624337390,-34.6007894,-58.3816825,Teatro Colón,,,
2624337391,-34.6005155,-58.3818597,Teatro Colón,,,
2624337392,-34.6008663,-58.3818396,Teatro Colón,,,
2624337393,-34.6064211,-58.3815439,Juan D. Perón,,,
2624337394,-34.6134433,-58.3811885,Belgrano,,,
2624337395,-34.6140188,-58.380993,Belgrano,,,
2624337396,-34.6180009,-58.3809632,Independencia,,,
2624342169,-34.6067401,-58.3813667,Juan D. Perón,,,
2624342170,-34.6068181,-58.3815301,Juan D. Perón,,,
2624342171,-34.613633,-58.3810129,Belgrano,,,
2624342172,-34.6138017,-58.3811725,Belgrano,,,
2634580326,-34.6384345,-58.5300746,Puente Liniers,,,
2634580327,-34.6384289,-58.5300299,Puente Liniers,,,
2634580328,-34.6381951,-58.5300874,Puente Liniers,,,
2634580329,-34.6381949,-58.530023,Puente Liniers,,,
2634580330,-34.6383112,-58.5300789,Puente Liniers,,,
2634580331,-34.6382989,-58.5300355,Puente Liniers,,,
2634580333,-34.6379555,-58.5300949,Puente Liniers,,,
2634580334,-34.6379591,-58.530028,Puente Liniers,,,
2634583943,-34.6381663,-58.529937,Puente Liniers,,,
2635225136,-34.5429263,-58.4428898,Ciudad Universitaria,,,
2635336353,-34.5453009,-58.439509,Pabellón 1,,,
2635994692,-34.5979068,-58.4506137,Rosas y Darwin,,,
2636745415,-34.6111199,-58.4391652,Acoyte y Vallese,,,
2642882548,-34.5510718,-58.4991328,Parque Sarmiento,,,
2651825878,-34.6089742,-58.4071592,Plaza Miserere,,,
2668042243,-34.6333456,-58.5141877,Polideportivo Vélez Sarsfield,,,
2668042244,-34.633606,-58.5134861,Polideportivo Vélez Sarsfield,,,
2668714154,-34.6296891,-58.4951215,Carrasco,,,
2668714561,-34.6293535,-58.494572,Carrasco,,,
2668740828,-34.6293807,-58.4950414,Avenida Juan B. Justo,,,
2668740911,-34.6297561,-58.4945622,Carrasco y Juan B. Justo,,,
2668763684,-34.6271804,-58.4913845,Segurola,,,
2668763706,-34.6268806,-58.4908028,Segurola,,,
2669143582,-34.6291744,-58.4883572,Segurola y Aranguren,,,
2669657639,-34.6343721,-58.507077,Cortina,,,
2669657642,-34.6342833,-58.5063965,Cortina,,,
2669660842,-34.6323132,-58.501364,Lope de Vega,,,
2669660869,-34.6320289,-58.5006341,Lope de Vega,,,
2671476294,-34.625238,-58.4862496,Chivilcoy,,,
2671476325,-34.6250401,-58.4856163,Chivilcoy,,,
2678316267,-34.6016707,-58.369186,Plaza Roma,,,
2691058900,-34.5052678,-58.5376482,Parada de buses larga distancia,,,
2691058906,-34.5065596,-58.5363409,Panamericana Oeste,,,
2700671446,-34.6347965,-58.5329471,Castelli bajo Autopista,,,
2700671455,-34.6348039,-58.5330348,Castelli bajo Autopista,,,
2700671463,-34.6347688,-58.5255876,Madero y Juan B. Justo,,,
2706082792,-34.5773705,-58.426463,Pacífico,,,
2707914167,-34.6385557,-58.3572011,Puente Avellaneda,,,
2715927477,-34.6120697,-58.4387276,Acoyte y Vallese,,,
2717877464,-34.6802932,-58.4933591,Goleta Santa Cruz,,,
2718309549,-34.5957773,-58.3890059,Santa Fe y Paraná,,,
2718310810,-34.5957918,-58.3897339,Santa Fe y Montevideo,,,
2718310884,-34.5958427,-58.3920581,Santa Fe y Rodriguez Peña,,,
2718311136,-34.5956471,-58.3919588,Avenida Santa Fe,,,
2719037802,-34.597978,-58.3931241,Plaza Rodriguez Peña,,,
2719037846,-34.5978006,-58.3931421,Plaza Rodriguez Peña,,,
2719037960,-34.5971362,-58.3947686,Riobamba y Marcelo T de Alvear,,,
2719038011,-34.5957933,-58.3950818,Santa Fe y Riobamba,,,
2719381335,-34.5958584,-58.3928922,Avenida Callao,,,
2719439787,-34.5958551,-58.392789,Santa Fe y Callao,,,
2719439788,-34.5958499,-58.3925395,Avenida Callao,,,
2719929871,-34.5957732,-58.3888101,Santa Fe y Paraná,,,
2719930134,-34.5957865,-58.3894788,Santa Fe y Montevideo,,,
2719930135,-34.5939554,-58.3931133,Callao y Juncal,,,
2724724792,-34.5611626,-58.4553496,Museo Larreta,,,
2724725010,-34.5601272,-58.4532456,Juramento y O'Higgins,,,
2724725033,-34.5600034,-58.4530326,Juramento y O'Higgins,,,
2724746464,-34.5600572,-58.4533016,Juramento y O'Higgins,,,
2724746489,-34.559931,-58.453088,Juramento y O'Higgins,,,
2725330621,-34.559748,-58.4527811,Juramento y O'Higgins,,,
2725330627,-34.559672,-58.4528478,Juramento y O'Higgins,,,
2725330628,-34.5595513,-58.4526365,Juramento y O'Higgins,,,
2725330629,-34.5572044,-58.4486908,Juramento y Montañeses,,,
2725330630,-34.5563589,-58.4480977,,,,
2725419810,-34.557242,-58.4486599,Juramento y Montañeses,,,
2725451992,-34.5596286,-58.4525796,Juramento y O'Higgins,,,
2726182512,-34.5432136,-58.4731675,Ramallo y Cabildo,,,
2726182568,-34.541606,-58.4697456,Plaza Lima,,,
2727028284,-34.55581,-58.4630476,Congreso y Cabildo,,,
2727028334,-34.5557661,-58.4633032,Congreso y Cabildo,,,
2727028341,-34.5561554,-58.4640517,Congreso y Ciudad de La Paz,,,
2727275509,-34.5558251,-58.463262,Congreso y Cabildo,,,
2727275510,-34.5557416,-58.4631025,Congreso y Cabildo,,,
2727275511,-34.5562156,-58.4640083,Congreso y Ciudad de La Paz,,,
2733974883,-34.5611086,-58.4552621,Museo Larreta,,,
2733975100,-34.5611832,-58.4552072,Museo Larreta,,,
2734225365,-34.5814755,-58.4745984,Los Incas y Triunvirato,,,
2734225745,-34.5811258,-58.4740762,Los Incas y Triunvirato,,,
2737399338,-34.6090057,-58.4075204,Plaza Miserere,,,
2737399454,-34.6101882,-58.4069771,Plaza Miserere,,,
2737399479,-34.6102026,-58.4071614,Plaza Miserere,,,
2747680924,-34.5495728,-58.4925795,Donado y Deheza,,,
2747681095,-34.5568392,-58.4454737,Echeverría y Migueletes,,,
2747681224,-34.5552709,-58.4454657,Juramento y Miñones,,,
2747681739,-34.5564904,-58.4475131,Juramento y Libertador,,,
2747920104,-34.5567897,-58.445514,Echeverría y Migueletes,,,
2747920157,-34.5553152,-58.445421,Juramento y Miñones,,,
2747920199,-34.5565338,-58.4474743,Juramento y Libertador,,,
2776422809,-34.6339447,-58.5216709,Carrefour,,,
2776457226,-34.6338829,-58.5219054,Carrefour,,,
2779533915,-34.5633144,-58.4515148,La Pampa y Arcos,,,
2779533955,-34.5600475,-58.4474292,Barrancas de Belgrano,,,
2779533994,-34.5601623,-58.4471034,Barrancas de Belgrano,,,
2779651302,-34.563267,-58.4515545,La Pampa y Arcos,,,
2779651397,-34.5601211,-58.4474659,Barrancas de Belgrano,,,
2779651444,-34.5602394,-58.4471277,Barrancas de Belgrano,,,
2789506108,-34.7153164,-58.4511986,Camino Negro y Recondo,,,
2793906856,-34.6383493,-58.5272508,Liniers,,,
2793906867,-34.6383825,-58.527247,Liniers,,,
2793907103,-34.5608909,-58.4460449,Virrey Vertiz y José Hernández,,,
2793907104,-34.5607629,-58.4462765,Virrey Vertiz y José Hernández,,,
2793979134,-34.5607091,-58.4462318,Virrey Vertiz y José Hernández,,,
2793979135,-34.5608467,-58.4460019,Virrey Vertiz y José Hernández,,,
2796661569,-34.5580844,-58.4597213,Avenida Cabildo,,,
2796661570,-34.5577264,-58.4560765,Arcos y Blanco Encalada,,,
2796661769,-34.558001,-58.4595792,Avenida Cabildo,,,
2796661871,-34.5547959,-58.4541744,Monroe y 11 de Septiembre,,,
2796662469,-34.5581797,-58.4572721,Blanco Encalada y Cuba,,,
2796662470,-34.5577524,-58.4561126,Arcos y Blanco Encalada,,,
2796663271,-34.5581311,-58.459682,Avenida Cabildo,,,
2796663869,-34.554844,-58.4541397,Monroe y 11 de Septiembre,,,
2796664169,-34.5580519,-58.4595462,Avenida Cabildo,,,
2796665069,-34.5581386,-58.4573027,Blanco Encalada y Cuba,,,
2797740369,-34.6109029,-58.4076368,Terminal Once,,,
2802665948,-34.5679683,-58.4852729,Le Breton y Valdenegro,,,
2802704494,-34.5510248,-58.4408205,Escuela Colombo,,,
2802762926,-34.6013378,-58.515799,Sanabria y Del Carril,,,
2802768008,-34.6015544,-58.5139817,Nueva York y Gualeguaychú,,,
2802768503,-34.5998096,-58.51116,Hospital Zubizarreta,,,
2802769001,-34.5999354,-58.517044,Sanabria y Habana,,,
2802776403,-34.5973334,-58.5070938,Nueva York y Lamarca,,,
2805247001,-34.5440749,-58.4383999,Pabellón 1 / Parque Norte,,,
2807712106,-34.5701856,-58.5093218,Constituyentes,,,
2808901401,-34.5793532,-58.4908228,Olazábal y Burela,,,
2812416801,-34.5459286,-58.4622691,Larralde y 3 de Febrero,,,
2812416901,-34.5472615,-58.4649758,Larralde y Arcos,,,
2813358553,-34.5610578,-58.4549949,Museo Larreta,,,
2813373201,-34.5609889,-58.4550435,Museo Larreta,,,
2816978701,-34.5530659,-58.4506773,Avenida Monroe,,,
2816978802,-34.5449588,-58.4603461,Larralde y Arribeños,,,
2817087101,-34.609837,-58.4060771,Plaza Miserere,,,
2822796802,-34.5584783,-58.4482316,Estación Belgrano C,,,
2822796901,-34.5592835,-58.4490018,Barrancas de Belgrano,,,
2823713401,-34.5593592,-58.449043,Barrancas de Belgrano,,,
2824598701,-34.5594305,-58.4593816,Avenida Cabildo,,,
2824598801,-34.5593959,-58.4594067,Avenida Cabildo,,,
2830430010,-34.5817404,-58.3955403,Bus Turistico Parada 15,15,,
2830430011,-34.5760123,-58.4042745,Bus Turistico Parada 16,16,,
2830431960,-34.5757379,-58.4139283,Bus Turistico Parada 22,,,
2830486846,-34.6062774,-58.3769824,Diagonal Norte y Maipú,0,,
2830515105,-34.6355567,-58.3682429,Bus Turistico Parada 8,8,,
2830515106,-34.6391558,-58.361023,Bus Turistico Parada 9,9,,
2833422802,-34.6319726,-58.4839052,Mercedes y Bacacay,,,
2833422901,-34.6319832,-58.4839301,Mercedes y Bacacay,,,
2836396975,-34.5996065,-58.3825483,Bus Turistico Parada 25,25,,
2838722401,-34.6150082,-58.4525512,Fragata Sarmiento y Arengreen,,,
2838736301,-34.5501622,-58.4531968,Libertador y Congreso,,,
2838736302,-34.5467766,-58.4570613,Cenard,,,
2838736501,-34.5468456,-58.4571497,Cenard,,,
2838743301,-34.5502333,-58.453237,Libertador y Congreso,,,
2840955103,-34.5450259,-58.4592247,Club Obras Sanitarias,,,
2840955202,-34.5451015,-58.4593051,Club Obras Sanitarias,,,
2840955401,-34.536273,-58.4664487,Escuela Raggio,,,
2840955402,-34.5363031,-58.4665399,Escuela Raggio,,,
2840955405,-34.5531156,-58.4507684,Avenida Monroe,,,
2843188725,-34.5386596,-58.4649724,Espacio para la Memoria,,,
2845227202,-34.5422977,-58.4624084,Club Círculo Policial,,,
2845227301,-34.5422279,-58.462339,Club Círculo Policial,,,
2857404063,-34.5495341,-58.4925098,Donado y Deheza,,,
2857404064,-34.545953,-58.4622294,Larralde y 3 de Febrero,,,
2857404065,-34.5473094,-58.4649412,Larralde y Arcos,,,
2857404066,-34.5450074,-58.4603159,Larralde y Arribeños,,,
2862181801,-34.5588848,-58.4498421,Barrancas de Belgrano,,,
2871572202,-34.5947938,-58.5030908,Nueva York y San Martín,,,
2871575601,-34.5757607,-58.4482037,Lacroze y Zapiola,,,
2871575701,-34.576356,-58.4485272,Lacroze y Zapiola,,,
2871575801,-34.5778883,-58.449585,Conde y Lacroze,,,
2871599001,-34.6305706,-58.4937395,Morón y Carrasco,,,
2871599101,-34.6313446,-58.4925412,Carrasco y Aranguren,,,
2871599201,-34.6316398,-58.4921737,Carrasco y Aranguren,,,
2871599301,-34.6333216,-58.4900303,Carrasco y Avellaneda,,,
2871599401,-34.633666,-58.4896088,Carrasco y Bacacay,,,
2872814701,-34.5987371,-58.436364,Avenida Scalabrini Ortíz,,,
2872814901,-34.5986097,-58.4368066,Scalabrini Ortiz y Ramírez de Velasco,,,
2872920901,-34.5612781,-58.4577648,Mendoza y Cabildo,,,
2873875701,-34.515527,-58.4883061,Est. B. Mitre,,,
2873885301,-34.5045755,-58.4940054,Maipú y San Lorenzo,,,
2873885302,-34.5037187,-58.4996873,Gardel y Quintana,,,
2873885401,-34.5043384,-58.4943353,Maipú y San Lorenzo,,,
2873885501,-34.5034297,-58.494815,Maipú y Jose Ingenieros,,,
2873885502,-34.5026995,-58.4954008,Bermúdez y Maipú,,,
2873885601,-34.503665,-58.4975314,Bermúdez y Garay,,,
2874432001,-34.5290569,-58.4866989,Roca y Chacabuco,,,
2874432101,-34.5302113,-58.4891592,Roca y General Paz,,,
2874432201,-34.5307732,-58.4903443,Roca y España,,,
2885326902,-34.521514,-58.5132392,Panamericana y Gutierrez,,,
2885338601,-34.5215461,-58.513286,Panamericana y Gutierrez,,,
2885896001,-34.7091001,-58.5295336,Ciudad Evita,,,
2889329301,-34.5522495,-58.4381148,Castañeda y Echeverría,,,
2889329302,-34.5533699,-58.4399007,Servicio Nac. de Rehabilitación,,,
2889329401,-34.5541116,-58.4411406,IREP,,,
2889357801,-34.5522212,-58.4380702,Castañeda y Echeverría,,,
2889358001,-34.5534245,-58.4398544,Servicio Nac. de Rehabilitación,,,
2889395001,-34.5541561,-58.4410911,IREP,,,
2890008453,-34.6409028,-58.5289333,Puente Liniers,,,
2890008646,-34.6413081,-58.5289116,Puente Liniers,,,
2890008647,-34.6411323,-58.5289259,Puente Liniers,,,
2890008648,-34.6407888,-58.5289436,Puente Liniers,,,
2890008649,-34.6406548,-58.5289453,Puente Liniers,,,
2890008659,-34.6116714,-58.5285833,Lópe de Vega,,,
2890008660,-34.6055342,-58.5256962,General Paz y Lastra,,,
2890098401,-34.6406582,-58.5290141,Puente Liniers,,,
2890098402,-34.6407941,-58.5290069,Puente Liniers,,,
2892599798,-34.5695322,-58.4889087,Díaz Colodrero y Congreso,,,
2892599799,-34.597424,-58.4434812,Camargo y Serrano,,,
2892599800,-34.5831424,-58.4693145,Avenida Chorroarín,,,
2892599801,-34.572411,-58.4866049,Díaz Colodrero y Cullen,,,
2892599802,-34.5956262,-58.451209,Muñecas y Dorrego,,,
2892599805,-34.5920275,-58.4492932,Guzmán y Leiva,,,
2892599806,-34.5900273,-58.4514317,Guzmán y Newbery,,,
2892599807,-34.5957542,-58.4453453,Camargo y Juan B. Justo,,,
2892599808,-34.5873097,-58.4541394,Lacroze,,,
2892599809,-34.5736687,-58.485215,Monroe y Díaz Colodrero,,,
2892599810,-34.5622719,-58.4901989,Núñez y Valdenegro,,,
2892599811,-34.5597635,-58.4879152,Plaza Alberdi,,,
2892599813,-34.58202,-58.4728095,Triunvirato al 3600,,,
2892599814,-34.5776079,-58.4812526,Triunvirato y Juramento,,,
2892599816,-34.5792266,-58.4784978,Triunvirato y La Pampa,,,
2892599817,-34.57587,-58.4838572,Triunvirato y Olazábal,,,
2893709070,-34.5546883,-58.4889344,Donado y Balbín,,,
2894556339,-34.5490156,-58.4831624,Roque Pérez y Ruiz Huidobro,,,
2894556340,-34.5491798,-58.4832411,Ruiz Huidobro y Roque Pérez,,,
2896375281,-34.5507206,-58.452951,Libertador y Congreso,,,
2896380229,-34.5509031,-58.4527916,Libertador y Congreso,,,
2896381124,-34.5515303,-58.4486527,Monroe y Sourigues,,,
2896381125,-34.5499877,-58.4460707,Plaza El Salvador,,,
2896398602,-34.5515819,-58.448604,Monroe y Sourigues,,,
2896398603,-34.5524236,-58.4513703,Avenida Monroe,,,
2896398902,-34.5500557,-58.44603,Plaza El Salvador,,,
2896399001,-34.5506627,-58.4528718,Libertador y Congreso,,,
2896399201,-34.5508533,-58.4527101,Libertador y Congreso,,,
2899275232,-34.5552312,-58.4427688,Echeverría y Cazadores,,,
2899275235,-34.5539821,-58.4406674,IREP,,,
2899368101,-34.5539327,-58.4407162,IREP,,,
2899453001,-34.5551911,-58.4428091,Echeverría y Cazadores,,,
2900109501,-34.6193164,-58.5314311,General Paz,,,
2902856304,-34.5015569,-58.5453308,Thames,,,
2909399764,-34.5988354,-58.4396121,Malabia y Corrientes,,,
2912215601,-34.5066076,-58.5080667,Debenedetti y España,,,
2912215701,-34.5021216,-58.5007323,Díaz Vélez y De la Quintana,,,
2912215801,-34.501183,-58.4990114,Juan de Garay y Díaz Vélez,,,
2912228601,-34.5696,-58.4445337,Lacroze y Cabildo,,,
2912228701,-34.5682192,-58.44317,Lacroze y 11 de Septiembre,,,
2912228801,-34.5655633,-58.4406001,Lacroze y Luis María Campos,,,
2912228901,-34.5655236,-58.440176,Luis María Campos y Lacroze,,,
2912229001,-34.5644681,-58.4411173,T.García y L.M.Campos,,,
2912229201,-34.5672224,-58.4436041,Teodoro García y 11 de Septiembre,,,
2912745802,-34.5697655,-58.4361643,Hospital Militar,,,
2912746801,-34.5682009,-58.4374369,Solar de la Abadía,,,
2912747901,-34.574005,-58.4321358,Avenida Dorrego,,,
2912748101,-34.5777009,-58.4274278,Regimiento de Patricios,,,
2912775301,-34.5817168,-58.4147298,Las Heras y Siria,,,
2912775702,-34.5829723,-58.4077967,Parque Las Heras,,,
2912775901,-34.5818816,-58.4119169,Avenida Scalabrini Ortiz,,,
2912776001,-34.5840123,-58.4010731,Hospital Rivadavia,,,
2912792901,-34.586424,-58.3983673,Las Heras y Laprida,,,
2912793201,-34.587881,-58.3967254,Facultad de Ingeniería,,,
2912793301,-34.5895552,-58.3945892,Las Heras y Uriburu,,,
2912867004,-34.5930654,-58.3929178,Callao y Pacheco de Melo,,,
2912867304,-34.5912588,-58.3924974,Las Heras y Callao,,,
2912867305,-34.5957546,-58.3879526,Santa Fe y Paraná,,,
2912867306,-34.5956255,-58.3849711,Santa Fe y Talcahuano,,,
2912867803,-34.5955553,-58.3839581,Santa Fe y Libertad,,,
2912869601,-34.5941537,-58.3900418,Plaza Vicente López,,,
2912869701,-34.5958303,-58.3916375,Santa Fe y Rodríguez Peña,,,
2912869801,-34.595403,-58.3933088,Callao y Santa Fe,,,
2913517828,-34.6039204,-58.3843503,Corrientes y Libertad,,,
2913570101,-34.6188057,-58.3809472,Estados Unidos,,,
2913570201,-34.6194189,-58.3807745,Estados Unidos,,,
2913625201,-34.6144433,-58.381136,Venezuela,,,
2913625301,-34.6146863,-58.3809614,Venezuela,,,
2913625302,-34.5981217,-58.3819988,Paraguay,,,
2913625303,-34.5984235,-58.3818195,Paraguay,,,
2913625401,-34.6075743,-58.3814816,Bartolomé Mitre,,,
2913625402,-34.6016687,-58.3818046,Obelisco Norte,,,
2913625403,-34.601935,-58.38163,Obelisco Norte,,,
2913625501,-34.6078004,-58.3813064,Bartolomé Mitre,,,
2914633208,-34.5691309,-58.4453782,Teodoro García y Cabildo,,,
2914633703,-34.5691588,-58.4453442,Teodoro García y Cabildo,,,
2914633705,-34.5703752,-58.4449564,Lacroze y Cabildo,,,
2914634205,-34.5703254,-58.445062,Lacroze y Cabildo,,,
2915936080,-34.5377347,-58.4672929,Est. Rivadavia,,,
2916113202,-34.5619245,-58.4448202,Plazoleta Olivera,,,
2916113401,-34.5655754,-58.4400034,Luis María Campos y Lacroze,,,
2916113601,-34.5635268,-58.4386224,Lacroze y Migueletes,,,
2916113701,-34.5630193,-58.4399957,Migueletes y Teodoro García,,,
2916162701,-34.5656229,-58.4400614,Luis María Campos y Lacroze,,,
2916177201,-34.5634878,-58.4386792,Lacroze y Migueletes,,,
2916177301,-34.5629733,-58.4399566,Migueletes y Teodoro García,,,
2916190701,-34.5618953,-58.4447725,Plazoleta Olivera,,,
2916308901,-34.5647151,-58.4396931,Lacroze y Soldado de la Independencia,,,
2916309201,-34.5646828,-58.4397496,Lacroze y Soldado de la Independencia,,,
2917563906,-34.6038808,-58.38435,Corrientes y Libertad,,,
2919597490,-34.5424694,-58.4798126,Pico y Zapiola,,,
2919600616,-34.5387823,-58.4770073,Puente Saavedra,,,
2919600617,-34.5387585,-58.4772219,Puente Saavedra,,,
2919600618,-34.5417886,-58.4777864,Pico y Crámer,,,
2919630903,-34.5418334,-58.477766,Pico y Crámer,,,
2919631501,-34.5425132,-58.4797871,Pico y Zapiola,,,
2920535088,-34.7384604,-58.392406,Alsina y Cabrera,,,
2922298301,-34.5957819,-58.389281,Santa Fe y Montevideo,,,
2922298401,-34.5958454,-58.3922119,Santa Fe y Rodriguez Peña,,,
2922752201,-34.5629422,-58.4772037,Congreso y Naón,,,
2922835601,-34.5370936,-58.4660571,Libertador y Pico,,,
2922835701,-34.5371448,-58.4661493,Libertador y Pico,,,
2924087269,-34.5648402,-58.4611072,Crámer y Juramento,,,
2924087276,-34.5514821,-58.4977079,Pico y Valdenegro,,,
2924087277,-34.5505137,-58.4959117,Pico y Lugones,,,
2924087278,-34.5495152,-58.4940394,Pico y Machain,,,
2924087281,-34.5443685,-58.4603172,Club Ciudad de Bs. As.,,,
2924087282,-34.5479,-58.4560212,Guayra,,,
2924089001,-34.5494892,-58.4940602,Pico y Machain,,,
2924089101,-34.5504722,-58.4959414,Pico y Lugones,,,
2928701602,-34.562477,-58.4755763,Washington y Congreso,,,
2929278901,-34.5478306,-58.4559654,Guayra,,,
2929279001,-34.544293,-58.4602479,Club Ciudad de Bs. As.,,,
2933767501,-34.551833,-58.4664372,Pedraza y Cabildo,,,
2933767502,-34.5518745,-58.4664119,Pedraza y Cabildo,,,
2934295408,-34.5061469,-58.5363859,Panamericana Oeste,,,
2934915185,-34.6396906,-58.5311547,Puente Liniers,,,
2934915187,-34.6405092,-58.5310967,Puente Liniers,,,
2934915188,-34.6403333,-58.5300177,Puente Liniers,,,
2934915190,-34.6398822,-58.5300363,Puente Liniers,,,
2934922001,-34.6396887,-58.5311026,Puente Liniers,,,
2934922101,-34.6403322,-58.5299486,Puente Liniers,,,
2934922201,-34.6398777,-58.5299775,Puente Liniers,,,
2938389258,-34.6107211,-58.5292581,General Paz y Lope de Vega,,,
2938389259,-34.6107453,-58.5291892,General Paz y Lope de Vega,,,
2938389260,-34.5974582,-58.3931769,Plaza Rodriguez Peña,,,
2942774703,-34.5468765,-58.4939545,Panamericana,,,
2948623332,-34.6867658,-58.3831689,Puente Gerli,,,
2950081871,-34.5439924,-58.5031564,Mitre y Lavalle,,,
2950081872,-34.5461989,-58.4997762,Plaza León Vienni,,,
2950082542,-34.6567771,-58.5260384,Mosconi,,,
2950082543,-34.6618523,-58.5191633,Alberdi,,,
2950082641,-34.6626516,-58.5167438,Alberdi,,,
2950090742,-34.5461846,-58.4998837,Plaza León Vienni,,,
2950090743,-34.5440541,-58.5032143,Mitre y Lavalle,,,
2950097533,-34.6567386,-58.5259858,Mosconi,,,
2953475735,-34.5404394,-58.4675582,Ramallo y Grecia,,,
2953493133,-34.5403917,-58.4675901,Ramallo y Grecia,,,
2953544633,-34.6400543,-58.5497311,Rivadavia y Larrea,,,
2953544634,-34.640106,-58.5497308,Rivadavia y Larrea,,,
2960428404,-34.6659624,-58.5132469,Salcedo / Rodó,,,
2960428405,-34.6659859,-58.5132736,Salcedo / Rodó,,,
2960510596,-34.6333033,-58.5293983,Aguaribay,,,
2960510597,-34.6333068,-58.5294449,Aguaribay,,,
2960510599,-34.6187757,-58.5302598,General Paz y Beiró,,,
2960510600,-34.6187785,-58.5303221,General Paz y Beiró,,,
2960510601,-34.6742958,-58.5028293,Crovara,,,
2960510602,-34.6743349,-58.5028681,Crovara,,,
2960510603,-34.6565367,-58.5246663,Emilio Castro,,,
2960510604,-34.6565753,-58.5247038,Emilio Castro,,,
2960510605,-34.6744966,-58.5008868,Eva Perón,,,
2960510606,-34.6745427,-58.5009263,Eva Perón,,,
2960510607,-34.605516,-58.5257291,General Paz y Lastra,,,
2960510608,-34.603494,-58.5250838,Sáenz Peña,,,
2960510609,-34.6035097,-58.5250281,Sáenz Peña,,,
2960510610,-34.6592416,-58.5211008,Schmidl,,,
2960510611,-34.6592821,-58.5211336,Schmidl,,,
2960510612,-34.6536164,-58.527613,Tonelero,,,
2960510613,-34.6536277,-58.5276503,Tonelero,,,
2960539997,-34.6189122,-58.5312202,Avenida Beiró,,,
2960539998,-34.6189215,-58.5312995,Avenida Beiró,,,
2960539999,-34.6255979,-58.5308301,General Paz y Croacia,,,
2960540000,-34.6255992,-58.5309088,General Paz y Croacia,,,
2960540001,-34.5931301,-58.5209979,Juan de Garay,,,
2960540002,-34.5931516,-58.5209597,Juan de Garay,,,
2960540003,-34.630512,-58.53062,Lugones,,,
2960540004,-34.6305083,-58.5305535,Lugones,,,
2960540005,-34.6054299,-58.5268071,General Paz y Nuestra Señora del Carmen,,,
2960540006,-34.6054607,-58.5267154,General Paz y Nuestra Señora del Carmen,,,
2960540007,-34.5944553,-58.5216356,Ashkar - Griveo,,,
2960540008,-34.594468,-58.5215689,Ashkar - Griveo,,,
2960540009,-34.6144645,-58.5310349,Puente Victor Hugo,,,
2960540010,-34.6144785,-58.5309556,Puente Victor Hugo,,,
2960540011,-34.6026615,-58.525206,Sáenz Peña,,,
2960540012,-34.60269,-58.5251553,Sáenz Peña,,,
2960546983,-34.6409078,-58.5289997,Puente Liniers,,,
2962113000,-34.611644,-58.5286535,Lópe de Vega,,,
2963461990,-34.5532064,-58.4441979,Mendoza y Cazadores,,,
2963461991,-34.5519423,-58.4419976,Mendoza y Dragones,,,
2963474785,-34.5540331,-58.4455922,Mendoza y Artilleros,,,
2963488133,-34.5539907,-58.4456263,Mendoza y Artilleros,,,
2963488134,-34.5518664,-58.4420524,Mendoza y Dragones,,,
2963488233,-34.5531575,-58.4442245,Mendoza y Cazadores,,,
2965336241,-34.6478914,-58.5066986,Emilio Castro y Larrazábal,,,
2965361934,-34.6479518,-58.5066533,Emilio Castro y Larrazábal,,,
2966080142,-34.5565304,-58.4569922,Monroe y Arcos,,,
2966080543,-34.5564826,-58.4570216,Monroe y Arcos,,,
2967562333,-34.5624983,-58.4756124,Washington y Congreso,,,
2968375709,-34.5885146,-58.4108655,Alto Palermo,,,
2968375710,-34.5885842,-58.410917,Alto Palermo,,,
2968375717,-34.5732895,-58.4387006,Cabildo y Santos Dumont,,,
2968375718,-34.5733407,-58.4387372,Cabildo y Santos Dumont,,,
2968375723,-34.6076044,-58.4062569,Pueyrredón y Sarmiento,,,
2968375726,-34.6100845,-58.4069935,Plaza Miserere,,,
2968375728,-34.597907,-58.4036669,Avenida Córdoba,,,
2968375729,-34.5979298,-58.4035669,Avenida Córdoba,,,
2968375730,-34.5768327,-58.431037,Santa Fe y Carranza,,,
2968375731,-34.5769299,-58.4308824,Santa Fe y Carranza,,,
2968376535,-34.5848916,-58.4164999,Santa Fe y Scalabrini Ortiz,,,
2968376536,-34.5868322,-58.4134195,Santa Fe y Salguero,,,
2968376537,-34.5868876,-58.4134831,Santa Fe y Salguero,,,
2968376538,-34.5904941,-58.4083723,Santa Fe y Bustamante,,,
2968376539,-34.5905426,-58.408431,Santa Fe y Bustamante,,,
2968378113,-34.6090644,-58.4081719,Plaza Miserere,,,
2969569834,-34.5634485,-58.5070839,Barrio Militar,,,
2969571337,-34.6184612,-58.5312482,General Paz y Beiró,,,
2969571338,-34.6184619,-58.5313259,General Paz y Beiró,,,
2972129445,-34.5451682,-58.4859266,Pico y Roque Pérez,,,
2972132255,-34.5650019,-58.4816074,Donado y Congreso,,,
2972132747,-34.5474707,-58.4844167,Roque Pérez y Ramallo,,,
2972144834,-34.5519495,-58.4824655,Paroissien y Melián,,,
2972144836,-34.5650194,-58.4809595,Congreso y Homlberg,,,
2972144934,-34.5647091,-58.480728,Congreso y Holmberg,,,
2973868121,-34.6091694,-58.4071565,Plaza Miserere,,,
2973868967,-34.6091407,-58.4074115,Plaza Miserere,,,
2973874435,-34.6091187,-58.4071588,Plaza Miserere,,,
2973874436,-34.6091962,-58.4074026,Plaza Miserere,,,
2975061019,-34.6131214,-58.5303363,General Paz y Colombo,,,
2975063992,-34.622352,-58.531054,General Paz y Ejército de los Andes,,,
2975069767,-34.6223511,-58.5311073,General Paz y Ejército de los Andes,,,
2975076733,-34.6131082,-58.5304005,General Paz y Colombo,,,
2975734367,-34.6023506,-58.4050256,Pueyrredón y Lavalle,,,
2975737306,-34.599604,-58.4039935,Avenida Córdoba,,,
2975737307,-34.615507,-58.4110758,24 de Noviembre y Belgrano,,,
2975740419,-34.6059713,-58.4056983,Pueyrredón y Valentín Gómez,,,
2975740553,-34.6149193,-58.4097846,Avenida Belgrano,,,
2975740554,-34.6079208,-58.4059983,Once,,,
2975740555,-34.6080655,-58.4059936,Once,,,
2975740556,-34.6057908,-58.4056476,Pueyrredón y Valentín Gómez,,,
2975740559,-34.6152858,-58.4082832,La Rioja y Belgrano,,,
2975741325,-34.6147287,-58.4098206,Avenida Belgrano,,,
2975741576,-34.6156812,-58.4110656,24 de Noviembre y Belgrano,,,
2975768034,-34.6152899,-58.4083687,La Rioja y Belgrano,,,
2975768036,-34.6156796,-58.4111153,24 de Noviembre y Belgrano,,,
2975768133,-34.6150945,-58.4097073,Avenida Belgrano,,,
2975768134,-34.6149128,-58.4097442,Avenida Belgrano,,,
2975768135,-34.6147222,-58.4097698,Avenida Belgrano,,,
2975768333,-34.6155118,-58.4111322,24 de Noviembre y Belgrano,,,
2975773333,-34.6080697,-58.4060941,Once,,,
2975778433,-34.605768,-58.4057647,Pueyrredón y Valentín Gómez,,,
2975805933,-34.5452039,-58.4859001,Pico y Roque Pérez,,,
2976243536,-34.5649703,-58.4815606,Donado y Congreso,,,
2976511952,-34.5474419,-58.4843581,Roque Pérez y Ramallo,,,
2976539391,-34.5519906,-58.4824417,Paroissien y Melián,,,
2977807934,-34.5650689,-58.4545123,Pampa y Cabildo,,,
2977837233,-34.5650241,-58.4545471,Pampa y Cabildo,,,
2979370033,-34.5488196,-58.4679606,Larralde y Cabildo,,,
2979370133,-34.5487723,-58.4679926,Larralde y Cabildo,,,
2979403933,-34.5565339,-58.4498966,Barrio Chino,,,
2979404033,-34.5565725,-58.4498775,Barrio Chino,,,
2980297833,-34.5406609,-58.4678975,Ramallo y Grecia,,,
2980325036,-34.6382476,-58.5259474,Liniers,,,
2980462425,-34.6983676,-58.469296,Autódromo,,,
2980462426,-34.6984047,-58.4693394,Autódromo,,,
2980462427,-34.6983534,-58.4709123,General Paz y Roca,,,
2980462428,-34.684073,-58.4884336,Villa Madero,,,
2980462429,-34.6841127,-58.4884851,Villa Madero,,,
2980462430,-34.684168,-58.489478,Villa Madero,,,
2980469807,-34.689076,-58.4836388,General Paz y Unanué,,,
2981208072,-34.6347958,-58.5270986,J.B. Justo y Gana,,,
2986079633,-34.5480009,-58.4920884,Avenida General Paz,,,
2986968133,-34.55738,-58.5042512,Guillermo Manso,,,
2988854788,-34.556742,-58.4651854,Congreso y Moldes,,,
2988855030,-34.557029,-58.4654011,Congreso y Moldes,,,
2988855618,-34.5827366,-58.4195931,Jardín Botánico,,,
2988878333,-34.5568048,-58.4651372,Congreso y Moldes,,,
2988878433,-34.5569697,-58.4654403,Congreso y Moldes,,,
2989489933,-34.5826937,-58.4195374,Jardín Botánico,,,
2989581303,-34.5641984,-58.4578448,Echeverría y Amenábar,,,
2989596643,-34.5671518,-58.4540234,V. del Pino y C. de la Paz,,,
2989597589,-34.5661354,-58.4544609,José Hernández y Ciudad de la Paz,,,
2989654933,-34.5661757,-58.4544183,José Hernández y Ciudad de la Paz,,,
2989654934,-34.5671026,-58.4540725,V. del Pino y C. de la Paz,,,
2989655133,-34.5641546,-58.4578791,Echeverría y Amenábar,,,
2991605489,-34.5685321,-58.5179192,Illia y Oliveira César,,,
2991605490,-34.571511,-58.523059,Illia y Gutierrez,,,
2991605491,-34.572597,-58.524926,Illia y French,,,
2991605492,-34.5755221,-58.5307164,Lincoln y Saavedra,,,
2991614805,-34.5693977,-58.5194241,Illia y Saavedra,,,
2991614892,-34.5702214,-58.5208334,Illia y Villegas,,,
2991614893,-34.5744437,-58.5273296,Illia e Ituzaingó,,,
2991643033,-34.5685848,-58.517877,Illia y Oliveira César,,,
2991643133,-34.5694592,-58.5193857,Illia y Saavedra,,,
2991643233,-34.5702725,-58.5207901,Illia y Villegas,,,
2991643333,-34.5715622,-58.5230162,Illia y Gutierrez,,,
2991652333,-34.57264,-58.5248766,Illia y French,,,
2991652433,-34.5744809,-58.5272623,Illia e Ituzaingó,,,
2991655133,-34.5755464,-58.5306791,Lincoln y Saavedra,,,
2991765649,-34.6773244,-58.4989568,Agrelo-Scapino,,,
2996522588,-34.6115374,-58.528429,Lope de Vega y General Paz,,,
2996523711,-34.626524,-58.529804,Nogoyá,,,
2996524874,-34.6218464,-58.5300818,General Paz y José Varela,,,
2996526738,-34.6082957,-58.5269966,General Paz y Del Carril,,,
2996526739,-34.5919779,-58.5193326,Chivilcoy,,,
2996526740,-34.5803023,-58.5140308,Miguelete,,,
2996527471,-34.5702052,-58.5092759,Constituyentes,,,
2996527472,-34.56388,-58.5061919,Parque General Paz,,,
2996527473,-34.5574939,-58.5032,Puente Manso,,,
2996527474,-34.5511166,-58.4998694,Parque Sarmiento,,,
2996528468,-34.542902,-58.4619156,Libertador y Paroissien,,,
2996823939,-34.6115817,-58.5284558,Lope de Vega y General Paz,,,
2996824341,-34.6082802,-58.527036,General Paz y Del Carril,,,
2996824343,-34.6265292,-58.5298491,Nogoyá,,,
2996824943,-34.5919568,-58.5193881,Chivilcoy,,,
2996960933,-34.5428282,-58.4618381,Libertador y Paroissien,,,
2997959833,-34.5533502,-58.4516291,Monroe y Libertador,,,
2997960033,-34.5533043,-58.4516646,Monroe y Libertador,,,
2999024104,-34.6595607,-58.5216964,Cavia - Schmidl,,,
2999024105,-34.6595871,-58.5217267,Cavia - Schmidl,,,
3003585732,-34.5684882,-58.4563078,Virrey del Pino y Vidal,,,
3003585763,-34.5704592,-58.4587487,Los Incas y Zapiola,,,
3003585933,-34.568448,-58.4562529,Virrey del Pino y Vidal,,,
3003585937,-34.5710683,-58.4581609,Elcano y Zapiola,,,
3003587667,-34.5686557,-58.4580384,Crámer y Elcano,,,
3003706941,-34.5684045,-58.4562864,Virrey del Pino y Vidal,,,
3003706942,-34.568431,-58.4563328,Virrey del Pino y Vidal,,,
3003713333,-34.5704864,-58.4587081,Los Incas y Zapiola,,,
3003823133,-34.627746,-58.5307228,Barragán,,,
3003823233,-34.6277436,-58.5308088,Barragán,,,
3005089299,-34.5905295,-58.4004314,Pueyrredón y French,,,
3005089301,-34.586841,-58.3977972,Las Heras y Pueyrredón,,,
3005089313,-34.5828936,-58.4075787,Parque Las Heras,,,
3005105821,-34.5847424,-58.4001098,Hospital Rivadavia,,,
3005105822,-34.5833115,-58.4030292,Las Heras 2900,,,
3005116009,-34.5631059,-58.4431485,Luis María Campos y Loreto,,,
3005116326,-34.5650847,-58.4408033,Avenida Lacroze,,,
3005116327,-34.564998,-58.440908,Avenida Lacroze,,,
3005116556,-34.5815435,-58.4155533,Las Heras y Lafinur,,,
3005120530,-34.5776601,-58.4272132,Regimiento de Patricios,,,
3005120581,-34.5812958,-58.4195063,Zoológico,,,
3005121037,-34.570326,-58.4355407,Hospital Militar,,,
3005378933,-34.5905007,-58.4005205,Pueyrredón y French,,,
3005379035,-34.6067656,-58.4034599,Paso y Sarmiento,,,
3005379036,-34.6071062,-58.403506,Paso y Perón,,,
3005379037,-34.6071089,-58.4034428,Paso y Perón,,,
3005742033,-34.564953,-58.4408392,Avenida Lacroze,,,
3005742133,-34.565035,-58.4407438,Avenida Lacroze,,,
3005830433,-34.5868887,-58.3978649,Las Heras y Pueyrredón,,,
3006114622,-34.6413114,-58.5289748,Puente Liniers,,,
3009647487,-34.6386998,-58.5291669,Puente Liniers,,,
3009786537,-34.6218456,-58.5301306,General Paz y José Varela,,,
3010415735,-34.5616358,-58.4444261,Plazoleta Olivera,,,
3010415936,-34.5616959,-58.4444552,Plazoleta Olivera,,,
3011679133,-34.5733704,-58.5119148,Centro Atómico Constituyentes,,,
3011679233,-34.5777883,-58.5139377,Makro,,,
3011679333,-34.5823969,-58.5158476,Miguelete,,,
3011876847,-34.6847486,-58.4085224,Rivadavia y Quindimil,,,
3013495945,-34.5671648,-58.4562113,José Hernández y Moldes,,,
3013496070,-34.5671116,-58.4561131,José Hernández y Moldes,,,
3013496104,-34.5682771,-58.4576248,Elcano y Crámer,,,
3013496105,-34.5685006,-58.4576405,Elcano y Crámer,,,
3013496106,-34.5677091,-58.4585958,Crámer y La Pampa,,,
3013507233,-34.5671499,-58.4560846,José Hernández y Moldes,,,
3013507333,-34.5672024,-58.4561753,José Hernández y Moldes,,,
3013507433,-34.5757501,-58.5130341,INTI,,,
3013507434,-34.5682805,-58.4575484,Elcano y Crámer,,,
3013507634,-34.5685022,-58.4575678,Elcano y Crámer,,,
3015395383,-34.5594383,-58.4524489,Juramento y O'Higgins,,,
3015397594,-34.560157,-58.4536734,Juramento y Arcos,,,
3019211327,-34.5357766,-58.4785427,Laprida y Avellaneda,,,
3019218545,-34.5358282,-58.4785143,Laprida y Avellaneda,,,
3019218948,-34.5356511,-58.4780388,Laprida y Maipú,,,
3019218949,-34.5356077,-58.4780611,Laprida y Maipú,,,
3019249033,-34.6352184,-58.5315465,San Ignacio y Juan B. Justo,,,
3019249034,-34.6352176,-58.5314991,San Ignacio y Juan B. Justo,,,
3019454386,-34.6044077,-58.5263022,General Paz y Las Heras,,,
3021487651,-34.595391,-58.5211343,Griveo,,,
3021487652,-34.5954282,-58.5210893,Griveo,,,
3021487653,-34.5886409,-58.518906,Avenida San Martín,,,
3021487655,-34.5892539,-58.5180767,Avenida San Martín,,,
3021550865,-34.5842652,-58.5168439,General Paz y 25 de Mayo,,,
3023185831,-34.6344839,-58.5480458,Gaona y Ballester,,,
3023626395,-34.5734061,-58.5118374,Centro Atómico Constituyentes,,,
3023626396,-34.5757665,-58.512975,INTI,,,
3023626397,-34.5778049,-58.5138576,Makro,,,
3023626398,-34.5802813,-58.514077,Miguelete,,,
3023626410,-34.5698151,-58.5101805,Constituyentes,,,
3023729410,-34.563465,-58.5070314,Barrio Militar,,,
3023729411,-34.5697978,-58.510234,Constituyentes,,,
3023729413,-34.5574747,-58.5032492,Puente Manso,,,
3023729415,-34.5574112,-58.5041785,Guillermo Manso,,,
3023729416,-34.5638612,-58.5062436,Parque General Paz,,,
3023729417,-34.5510785,-58.4999241,Parque Sarmiento,,,
3023729418,-34.5604362,-58.5058856,Tecnópolis,,,
3026386314,-34.5493421,-58.4992323,Balbín - Mitre,,,
3026386315,-34.5469427,-58.4939343,Panamericana,,,
3026565022,-34.5453344,-58.4882102,Dot,,,
3026565023,-34.545386,-58.4881736,Dot,,,
3026612856,-34.5377009,-58.4672367,Est. Rivadavia,,,
3028985094,-34.5424829,-58.4441221,Ciudad Universitaria,,,
3033165033,-34.5604629,-58.5058157,Tecnópolis,,,
3034690823,-34.5770649,-58.5123049,General Paz y Ezeiza,,,
3034690824,-34.5746515,-58.511167,Barrio San Martín Edificio 32,,,
3034691428,-34.6152363,-58.5302404,Puente Víctor Hugo,,,
3034691429,-34.6119295,-58.5282952,Asunción y Lope de Vega,,,
3034711633,-34.5770547,-58.5123518,General Paz y Ezeiza,,,
3034711733,-34.5746264,-58.5112136,Barrio San Martín Edificio 32,,,
3034734236,-34.6152238,-58.5303006,Puente Víctor Hugo,,,
3034736533,-34.6118949,-58.5283293,Asunción y Lope de Vega,,,
3035311101,-34.5731704,-58.5104624,Barrio San Martín Edificio 13,,,
3035313115,-34.5558205,-58.5024485,Villa Martelli,,,
3035313116,-34.5312033,-58.5063449,Panamericana Oeste,,,
3035313254,-34.5304735,-58.5048829,Panamericana Este,,,
3035396343,-34.5305254,-58.5048518,Panamericana Este,,,
3035432933,-34.5312456,-58.5063233,Panamericana Oeste,,,
3035515533,-34.5558118,-58.5024833,Villa Martelli,,,
3035552333,-34.5731441,-58.5105178,Barrio San Martín Edificio 13,,,
3035553334,-34.544143,-58.4857725,Vedia y Superí,,,
3035555143,-34.5419097,-58.4807409,Vedia y Zapiola,,,
3035692933,-34.5440737,-58.4858172,Vedia y Superí,,,
3035693033,-34.5418535,-58.4807706,Vedia y Zapiola,,,
3036367523,-34.5848062,-58.4001767,Hospital Rivadavia,,,
3036367524,-34.570368,-58.4356078,Hospital Militar,,,
3036367526,-34.5834321,-58.403024,Las Heras 2900,,,
3036367527,-34.6079284,-58.4061047,Once,,,
3036367528,-34.6059512,-58.4058077,Pueyrredón y Valentín Gómez,,,
3036367529,-34.5777646,-58.4272342,Regimiento de Patricios,,,
3036367530,-34.58142,-58.4195051,Zoológico,,,
3045889107,-34.508119,-58.5322211,Panamericana Oeste,,,
3045889108,-34.5203925,-58.5144353,Echeverría y Sáenz Peña,,,
3048268555,-34.5535713,-58.4404368,Dragones y Echeverría,,,
3048273274,-34.6478739,-58.528514,General Paz y Peribebuy,,,
3048278233,-34.5535122,-58.4403873,Dragones y Echeverría,,,
3048346155,-34.5479396,-58.4532682,Parroquia Santiago Apóstol,,,
3048346156,-34.5466024,-58.4506031,Alcorta y De Solier,,,
3048346703,-34.6872353,-58.4827433,General Paz y Saladillo,,,
3048346704,-34.6782525,-58.4959423,Barrio Piedrabuena,,,
3048346705,-34.6737382,-58.5014333,Avenida General Paz,,,
3048346706,-34.6692254,-58.5078931,De los Corrales,,,
3048346709,-34.6450111,-58.5286991,General Paz y Tuyutí,,,
3048346710,-34.6432384,-58.5287934,Terminal Parada Liniers,,,
3048346745,-34.5458432,-58.4516452,Estadio Monumental,,,
3048346746,-34.5449672,-58.4512225,Estadio Monumental,,,
3048346748,-34.5462846,-58.4514669,Estadio Monumental,,,
3048346749,-34.5477238,-58.453375,Parroquia Santiago Apóstol,,,
3048346750,-34.5467701,-58.4483988,River,,,
3048346751,-34.5469586,-58.4483105,River,,,
3048346753,-34.5475524,-58.4442632,Club Hípico Argentino,,,
3048346758,-34.5371253,-58.470292,General Paz y Grecia,,,
3048390049,-34.6782887,-58.495978,Barrio Piedrabuena,,,
3048390050,-34.6478756,-58.528577,General Paz y Peribebuy,,,
3048390051,-34.6432352,-58.5288574,Terminal Parada Liniers,,,
3048390053,-34.6901941,-58.4801185,Coronel Chilavert,,,
3048390054,-34.6902327,-58.4801696,Coronel Chilavert,,,
3048390055,-34.6692573,-58.5079298,De los Corrales,,,
3048390056,-34.6738209,-58.5013732,Avenida General Paz,,,
3048390057,-34.6956,-58.4729737,General Paz y Madariaga,,,
3048390058,-34.6956216,-58.4730009,General Paz y Madariaga,,,
3048390062,-34.6872429,-58.4828146,General Paz y Saladillo,,,
3048390063,-34.6450159,-58.5287371,General Paz y Tuyutí,,,
3048418214,-34.5465279,-58.4505948,Alcorta y De Solier,,,
3048418215,-34.5474716,-58.4442413,Club Hípico Argentino,,,
3048418216,-34.5450115,-58.4511207,Estadio Monumental,,,
3048418217,-34.5458012,-58.4517374,Estadio Monumental,,,
3048418218,-34.5463977,-58.4514832,Estadio Monumental,,,
3048418219,-34.5478939,-58.4533593,Parroquia Santiago Apóstol,,,
3048418221,-34.5468524,-58.4484078,River,,,
3048418222,-34.546868,-58.4482981,River,,,
3048418223,-34.5477876,-58.4532786,Parroquia Santiago Apóstol,,,
3049746833,-34.5473532,-58.4443031,Club Hípico Argentino,,,
3050614931,-34.563971,-58.4363028,Avenida Olleros,,,
3050614932,-34.5593961,-58.4270469,Avenida de los Ombúes,,,
3050617980,-34.5572586,-58.4297664,Intendente Bunge,,,
3050618033,-34.554404,-58.4360428,Plaza Aguilar,,,
3050618114,-34.5531414,-58.4389095,Ramsay y Echeverría,,,
3050618235,-34.5544748,-58.4362492,Plaza México,,,
3050842042,-34.5594514,-58.4271126,Avenida de los Ombúes,,,
3050842734,-34.5573157,-58.429816,Intendente Bunge,,,
3050851033,-34.5544486,-58.4360526,Plaza Aguilar,,,
3050851034,-34.5531716,-58.4389636,Ramsay y Echeverría,,,
3054665867,-34.6945113,-58.4759657,General Paz y Roosevelt,,,
3054665909,-34.6446757,-58.5273775,José León Suárez y Tuyutí,,,
3054670477,-34.689124,-58.483654,General Paz y Unanué,,,
3054671031,-34.6773648,-58.4990086,Agrelo-Scapino,,,
3054673575,-34.6499645,-58.5294496,General Paz y Conde,,,
3054674052,-34.6537366,-58.5292394,Díaz Vélez,,,
3054674053,-34.6697151,-58.5090005,De los Corrales - De la Torre,,,
3054674054,-34.6791295,-58.4966872,Barrio Piedrabuena,,,
3054674055,-34.6904628,-58.4813311,General Paz y Chilavert,,,
3054674237,-34.6810744,-58.4940764,General Iriarte,,,
3054674336,-34.6918454,-58.47946,General Paz y Cruz,,,
3054674338,-34.7008589,-58.466045,Parque del Sur,,,
3054674355,-34.6758115,-58.4991816,Doctor de la Rosa,,,
3054674357,-34.650323,-58.5283787,General Paz y Chávez,,,
3054723096,-34.6790764,-58.49665,Barrio Piedrabuena,,,
3054723097,-34.6503226,-58.5284475,General Paz y Chávez,,,
3054723098,-34.6499641,-58.5293766,General Paz y Conde,,,
3054723099,-34.6904309,-58.4812925,General Paz y Chilavert,,,
3054723100,-34.669669,-58.5089592,De los Corrales - De la Torre,,,
3054723101,-34.6758359,-58.4992083,Doctor de la Rosa,,,
3054723102,-34.6537338,-58.5291755,Díaz Vélez,,,
3054723103,-34.6918147,-58.4794299,General Paz y Cruz,,,
3054723104,-34.6810576,-58.494032,General Iriarte,,,
3054723105,-34.7008915,-58.4660816,Parque del Sur,,,
3054723106,-34.6944836,-58.4759078,General Paz y Roosevelt,,,
3054723107,-34.6446724,-58.5273169,José León Suárez y Tuyutí,,,
3056611633,-34.5418233,-58.4747884,San Isidro Labrador,,,
3056611733,-34.541853,-58.474777,San Isidro Labrador,,,
3066125252,-34.5677622,-58.4586869,Crámer y La Pampa,,,
3066125253,-34.5685987,-58.4579464,Crámer y Elcano,,,
3066125254,-34.5648921,-58.4612029,Crámer y Juramento,,,
3066656333,-34.5510288,-58.4991646,Parque Sarmiento,,,
3066847343,-34.552122,-58.4329927,La Pampa y Lugones,,,
3066858123,-34.5536143,-58.4343761,Alcorta y Pampa,,,
3066858266,-34.553657,-58.4343039,Alcorta y Pampa,,,
3067683037,-34.5522108,-58.4329032,La Pampa y Lugones,,,
3067709433,-34.5536959,-58.4344403,Alcorta y Pampa,,,
3067737435,-34.5537388,-58.4343695,Alcorta y Pampa,,,
3067754033,-34.5526732,-58.438531,Plaza Parques Nacionales,,,
3067754034,-34.5527331,-58.4384897,Plaza Parques Nacionales,,,
3067818688,-34.63299,-58.5303959,Santiago de Liniers,,,
3067831933,-34.632996,-58.5304684,Santiago de Liniers,,,
3071268204,-34.5748331,-58.4632317,Los Incas y Forest,,,
3071288955,-34.5801883,-58.4725455,Los Incas y Acha,,,
3071288956,-34.5846212,-58.4788818,Los Incas y Bauness,,,
3071288957,-34.5872831,-58.4824306,Los Incas y Altolaguirre,,,
3071289115,-34.5791423,-58.4706626,Los Incas y Álvarez Thomas,,,
3071289642,-34.576164,-58.4654887,Los Incas y Heredia,,,
3071294933,-34.58279,-58.4764953,Los Incas y Gamarra,,,
3071294934,-34.5858828,-58.4805788,Los Incas y Andonaegui,,,
3071294935,-34.5885707,-58.4841368,Los Incas y Constituyentes,,,
3071294936,-34.5906037,-58.4872487,Beiró y Caracas,,,
3071294938,-34.5964842,-58.4967752,Avenida San Martín,,,
3071294939,-34.5980908,-58.4993477,Beiró y Campana,,,
3071294940,-34.5997482,-58.502072,Beiró y Concordia,,,
3071294941,-34.6014172,-58.5047536,Beiró y San Nicolás,,,
3071294942,-34.6033856,-58.507968,Beiró y Chivilcoy,,,
3071297838,-34.6138011,-58.5249892,Beiró y Lope de Vega,,,
3071297839,-34.6155759,-58.5272842,Beiró y Moliere,,,
3071297840,-34.6173972,-58.5296478,Beiró y General Paz,,,
3071297858,-34.6381709,-58.5265901,Liniers,,,
3071297859,-34.6345471,-58.5266308,J.B. Justo y Gana,,,
3071297860,-34.6291944,-58.5296467,Fragueiro,,,
3071297897,-34.5856504,-58.5163732,General Paz y Bacón,,,
3071297899,-34.6320129,-58.5273228,Gana y Gamboa,,,
3071298014,-34.607036,-58.5138639,Beiró y Fernández de Enciso,,,
3071298016,-34.6108801,-58.5201403,Beiró y Bermúdez,,,
3071298017,-34.6128223,-58.5233575,Plaza El Maestro,,,
3071298019,-34.6136658,-58.5247671,Beiró y Lope de Vega,,,
3071298091,-34.6402651,-58.5438092,Rivadavia y Porrini,,,
3071298092,-34.6383503,-58.5268137,Liniers,,,
3071298139,-34.6383627,-58.5269811,Liniers,,,
3071298141,-34.6174869,-58.5297771,Beiró y General Paz,,,
3071298143,-34.6345018,-58.5269992,Avenida Juan B. Justo,,,
3071355977,-34.6095897,-58.5178915,Avenida Lastra,,,
3071355978,-34.5965303,-58.4967316,Avenida San Martín,,,
3071355979,-34.61372,-58.5247095,Beiró y Lope de Vega,,,
3071355981,-34.6109315,-58.5200927,Beiró y Bermúdez,,,
3071355982,-34.5981391,-58.4993067,Beiró y Campana,,,
3071355983,-34.5906553,-58.4872035,Beiró y Caracas,,,
3071355984,-34.6034625,-58.507897,Beiró y Chivilcoy,,,
3071355985,-34.599801,-58.5020248,Beiró y Concordia,,,
3071355986,-34.6070901,-58.5138127,Beiró y Fernández de Enciso,,,
3071355987,-34.6174509,-58.5295794,Beiró y General Paz,,,
3071355989,-34.6138594,-58.5249304,Beiró y Lope de Vega,,,
3071355991,-34.6156143,-58.5272173,Beiró y Moliere,,,
3071355992,-34.6014663,-58.5047153,Beiró y San Nicolás,,,
3071355994,-34.5802523,-58.4724888,Los Incas y Acha,,,
3071355995,-34.5873451,-58.482378,Los Incas y Altolaguirre,,,
3071355996,-34.5859537,-58.4805233,Los Incas y Andonaegui,,,
3071355997,-34.5846735,-58.4788344,Los Incas y Bauness,,,
3071355999,-34.5748591,-58.4631947,Los Incas y Forest,,,
3071356001,-34.5828567,-58.4764278,Los Incas y Gamarra,,,
3071356002,-34.5761902,-58.4654661,Los Incas y Heredia,,,
3071356004,-34.5792088,-58.47061,Los Incas y Álvarez Thomas,,,
3071356005,-34.6128782,-58.523303,Plaza El Maestro,,,
3071382446,-34.5856203,-58.5164375,General Paz y Bacón,,,
3071382448,-34.6291984,-58.5296947,Fragueiro,,,
3071382449,-34.6320061,-58.5272507,Gana y Gamboa,,,
3071382450,-34.6344968,-58.5269437,Avenida Juan B. Justo,,,
3071382452,-34.634644,-58.5266074,J.B. Justo y Gana,,,
3071382457,-34.6402194,-58.5437998,Rivadavia y Porrini,,,
3074352871,-34.6802553,-58.4933278,Goleta Santa Cruz,,,
3074407804,-34.5425376,-58.4439383,Ciudad Universitaria,,,
3074407805,-34.6411356,-58.5289859,Puente Liniers,,,
3074407808,-34.589012,-58.5190681,Avenida San Martín,,,
3074407809,-34.5890243,-58.5190133,Avenida San Martín,,,
3075947980,-34.5359044,-58.4681243,Estación Rivadavia,,,
3075947981,-34.5363029,-58.4678259,Estación Rivadavia,,,
3075947982,-34.5363501,-58.4678048,Estación Rivadavia,,,
3075947985,-34.5395149,-58.4659066,Ramallo,,,
3075947986,-34.539538,-58.4659602,Ramallo,,,
3076160406,-34.638697,-58.5291068,Puente Liniers,,,
3077545863,-34.5996454,-58.4664913,Trelles y Cucha Cucha,,,
3077567696,-34.538737,-58.4770327,Puente Saavedra,,,
3077660856,-34.6383111,-58.5268166,Liniers,,,
3077660857,-34.6383258,-58.5269855,Liniers,,,
3077687389,-34.6381685,-58.5265329,Liniers,,,
3082783907,-34.5731842,-58.5094891,Álvarez Prado y Bolivia,,,
3082783908,-34.5516887,-58.4993705,Balbín y General Paz,,,
3082794733,-34.5731983,-58.5094486,Álvarez Prado y Bolivia,,,
3083082640,-34.5516613,-58.4992955,Balbín y General Paz,,,
3084057066,-34.6040319,-58.4106323,Abasto,,,
3084057067,-34.6041267,-58.4106248,Abasto,,,
3084057068,-34.5937243,-58.4269632,Cabrera y Aráoz,,,
3084057069,-34.5937761,-58.4270239,Cabrera y Aráoz,,,
3084057070,-34.5963064,-58.4260399,Pringles y Córdoba,,,
3084057071,-34.5963355,-58.425993,Pringles y Córdoba,,,
3084057072,-34.5981526,-58.4265334,Pringles y Estado de Isrrael,,,
3084057073,-34.598158,-58.4264723,Pringles y Estado de Isrrael,,,
3084057074,-34.5759126,-58.4485912,Zapiola y Lacroze,,,
3084057075,-34.5759692,-58.4486248,Zapiola y Lacroze,,,
3084057076,-34.5954034,-58.4248571,Cabrera y Pringles,,,
3084057077,-34.5954355,-58.4249203,Cabrera y Pringles,,,
3084057078,-34.6040908,-58.4139811,Corrientes y Gallo,,,
3084057079,-34.6041658,-58.4139958,Corrientes y Gallo,,,
3084057080,-34.6036675,-58.4163738,Corrientes y Billinghurst,,,
3084057081,-34.6037593,-58.4163915,Corrientes y Billinghurst,,,
3084057082,-34.6027947,-58.4247614,Corrientes y Gascón,,,
3084057083,-34.6029349,-58.4247734,Corrientes y Gascón,,,
3084057084,-34.6032579,-58.4200896,Avenida Medrano,,,
3084057085,-34.6033395,-58.4201012,Avenida Medrano,,,
3084057086,-34.6045274,-58.4057551,Corrientes y Pueyrredón,,,
3084057087,-34.6046304,-58.4057755,Corrientes y Pueyrredón,,,
3084057088,-34.5164303,-58.4759754,Libertador e Yrigoyen,,,
3084057089,-34.5061411,-58.480304,Libertador y Alberdi,,,
3084057091,-34.5081531,-58.4794887,Libertador y Corrientes,,,
3084057094,-34.5140546,-58.4769531,Libertador y Malaver,,,
3084057104,-34.5013228,-58.4825103,Libertador y Roma,,,
3084057106,-34.5794083,-58.4462973,Matienzo y Conde,,,
3084057107,-34.5794367,-58.4462533,Matienzo y Conde,,,
3084057108,-34.5823079,-58.446417,Mercado de Pulgas,,,
3084057109,-34.5823681,-58.4464555,Mercado de Pulgas,,,
3084057110,-34.5920063,-58.4316766,Niceto Vega y Armenia,,,
3084057111,-34.5920475,-58.431717,Niceto Vega y Armenia,,,
3084057112,-34.5836032,-58.4438003,Niceto Vega y Arévalo,,,
3084057113,-34.5836682,-58.4438564,Niceto Vega y Arévalo,,,
3084057114,-34.5857862,-58.4406555,Niceto Vega y Bonpland,,,
3084057115,-34.5858575,-58.4407202,Niceto Vega y Bonpland,,,
3084057116,-34.5886827,-58.436463,Niceto Vega y Godoy Cruz,,,
3084057117,-34.5887291,-58.436509,Niceto Vega y Godoy Cruz,,,
3084057118,-34.5871413,-58.4387249,Niceto Vega y Humboldt,,,
3084057119,-34.5872077,-58.4387759,Niceto Vega y Humboldt,,,
3084057120,-34.5934669,-58.4295179,Niceto Vega y Scalabrini Ortiz,,,
3084057121,-34.5935107,-58.4295635,Niceto Vega y Scalabrini Ortiz,,,
3084057122,-34.5907386,-58.4335752,Niceto Vega y Serrano,,,
3084057123,-34.590785,-58.4336242,Niceto Vega y Serrano,,,
3084057125,-34.6081753,-58.4062226,Once,,,
3084057127,-34.5804817,-58.4463206,Santos Dumont y Enrique Martínez,,,
3084057128,-34.6022269,-58.4270998,Pringles y Corrientes,,,
3084057129,-34.6022461,-58.4270606,Pringles y Corrientes,,,
3084057130,-34.599924,-58.4267947,Pringles y Guardia Vieja,,,
3084057131,-34.5999332,-58.4267317,Pringles y Guardia Vieja,,,
3084057132,-34.5718925,-58.4562229,V. Olaguer y Feliú,,,
3084064233,-34.5719393,-58.4562592,V. Olaguer y Feliú,,,
3084064234,-34.518185,-58.4797213,Yrigoyen y Madero,,,
3084064235,-34.5740369,-58.4522257,Zapiola y Céspedes,,,
3084064236,-34.5740855,-58.4522717,Zapiola y Céspedes,,,
3084064237,-34.5775555,-58.4447461,Plaza de los Colegiales,,,
3084064238,-34.5776087,-58.44479,Plaza de los Colegiales,,,
3084064239,-34.5766581,-58.4468621,Zapiola y Maure,,,
3084064240,-34.5767488,-58.4469216,Zapiola y Maure,,,
3084064241,-34.5770592,-58.4459263,Zapiola y Newbery,,,
3084064242,-34.5771238,-58.4459796,Zapiola y Newbery,,,
3084064243,-34.5713379,-58.4572702,Zapiola y Virrey Avilés,,,
3084064244,-34.5713822,-58.4573025,Zapiola y Virrey Avilés,,,
3086858833,-34.6183718,-58.5317887,García Lorca y Gral.Paz,,,
3086858933,-34.6183298,-58.5318129,García Lorca y General Paz,,,
3086954043,-34.5577239,-58.4673235,Avenida Congreso,,,
3086954044,-34.5577591,-58.4673851,Avenida Congreso,,,
3086954045,-34.5492559,-58.4743079,Crámer y García del Río,,,
3086954046,-34.5492636,-58.4743614,Crámer y García del Río,,,
3086954047,-34.5558008,-58.4690693,Crámer e Iberá,,,
3086954048,-34.555845,-58.4691303,Crámer e Iberá,,,
3086954049,-34.5466914,-58.4755683,Crámer y Besares,,,
3086954050,-34.5467087,-58.4756147,Crámer y Besares,,,
3086954051,-34.5512918,-58.4728255,Crámer y Larralde,,,
3086954052,-34.5513206,-58.4728918,Crámer y Larralde,,,
3086954053,-34.5608577,-58.4646348,Crámer y Monroe,,,
3086954054,-34.5608943,-58.4646903,Crámer y Monroe,,,
3086954055,-34.5627553,-58.4630359,Crámer y Olazábal,,,
3086954056,-34.5627976,-58.4631406,Crámer y Olazábal,,,
3086954057,-34.5539179,-58.4708411,Crámer y Pedraza,,,
3086954058,-34.5539491,-58.4708939,Crámer y Pedraza,,,
3086954059,-34.5442523,-58.4767661,Plaza Vicuña Mackenna,,,
3086954060,-34.5442674,-58.4768068,Plaza Vicuña Mackenna,,,
3087808834,-34.598572,-58.3749062,Florida,,,
3090010544,-34.5872417,-58.3976282,Las Heras y Pueyrredón,,,
3090010545,-34.5938168,-58.4021837,Avenida Santa Fe,,,
3090010546,-34.5961485,-58.4031054,Pueyrredón y Marcelo T.de Alvear,,,
3090010548,-34.6030423,-58.4051845,Pueyrredón y Lavalle,,,
3090010549,-34.60541,-58.4057824,Avenida Corrientes,,,
3090015342,-34.5819924,-58.4124315,Avenida Scalabrini Ortiz,,,
3090018139,-34.5919621,-58.4013368,Hospital Alemán,,,
3090018144,-34.5977565,-58.4036173,Avenida Córdoba,,,
3090018145,-34.6007545,-58.4045703,Pueyrredón y Viamonte,,,
3090019772,-34.5616792,-58.4609866,Olazábal y Moldes,,,
3090019773,-34.5634375,-58.4430048,Luis María Campos y Zabala,,,
3090019774,-34.5759021,-58.4301979,Regimiento de Patricios,,,
3090019849,-34.5815526,-58.4193964,Jardín Botánico,,,
3090019850,-34.5815392,-58.4195901,Jardín Botánico,,,
3090019851,-34.5835605,-58.4045482,Las Heras y Billinghurst,,,
3090020055,-34.5606015,-58.4591939,Olazábal y Ciudad de la Paz,,,
3090020056,-34.567889,-58.4377677,Solar de la Abadía,,,
3090020061,-34.5815612,-58.4192721,Jardín Botánico,,,
3090020916,-34.5697017,-58.4363516,Hospital Militar,,,
3090021071,-34.5828773,-58.408513,Parque Las Heras,,,
3090021073,-34.5939248,-58.4022339,Avenida Santa Fe,,,
3090021074,-34.5967737,-58.4033106,Pueyrredón y Mansilla,,,
3090021075,-34.6000877,-58.4043516,Pueyrredón y San Luis,,,
3090021076,-34.601538,-58.404822,Pueyrredón y Tucumán,,,
3090079048,-34.7483755,-58.3940195,Alsina y Medrano,,,
3090111862,-34.5814276,-58.4193938,Jardín Botánico,,,
3090111863,-34.5814361,-58.4192701,Jardín Botánico,,,
3090111864,-34.5758411,-58.4301146,Regimiento de Patricios,,,
3090112467,-34.5818525,-58.4124272,Avenida Scalabrini Ortiz,,,
3090112470,-34.5827621,-58.4084681,Parque Las Heras,,,
3090112472,-34.593835,-58.4020926,Avenida Santa Fe,,,
3090112473,-34.5939483,-58.4021426,Avenida Santa Fe,,,
3090112474,-34.5919887,-58.4012393,Hospital Alemán,,,
3090112475,-34.6030441,-58.4050961,Pueyrredón y Lavalle,,,
3090112476,-34.5961723,-58.4030059,Pueyrredón y Marcelo T.de Alvear,,,
3090112477,-34.5967984,-58.4032073,Pueyrredón y Mansilla,,,
3090112478,-34.5977781,-58.40352,Avenida Córdoba,,,
3090112479,-34.6001051,-58.4042597,Pueyrredón y San Luis,,,
3090112480,-34.6015593,-58.4047281,Pueyrredón y Tucumán,,,
3090112481,-34.6007672,-58.4044733,Pueyrredón y Viamonte,,,
3090112482,-34.5678609,-58.437667,Solar de la Abadía,,,
3090112485,-34.6054271,-58.4056926,Avenida y Corrientes,,,
3090970714,-34.5652611,-58.4596859,Echeverría y Vidal,,,
3090970715,-34.5665963,-58.4598683,Crámer y Sucre,,,
3090970716,-34.5650048,-58.4612294,Cramer y Juramento,,,
3090970717,-34.5646618,-58.4615252,Crámer y Juramento,,,
3090970718,-34.5639734,-58.4623006,Mendoza y Crámer,,,
3090970719,-34.5632963,-58.4624246,Crámer 2200,,,
3090970720,-34.562754,-58.4627871,Olazábal y Crámer,,,
3091180665,-34.5646166,-58.461445,Crámer y Juramento,,,
3091180865,-34.5652306,-58.4597138,Echeverría y Vidal,,,
3091180965,-34.5665383,-58.459756,Crámer y Sucre,,,
3091180966,-34.5633558,-58.4625272,Crámer 2200,,,
3093488385,-34.5550251,-58.4895661,Balbín y Donado,,,
3093488386,-34.5551064,-58.4895593,Balbín y Donado,,,
3093488391,-34.5515846,-58.4923697,Machain y Ramallo,,,
3093488392,-34.5516099,-58.4924242,Machain y Ramallo,,,
3093488393,-34.5536231,-58.4737288,Núñez y Zapiola,,,
3093488394,-34.553673,-58.4736991,Núñez y Zapiola,,,
3093488395,-34.5565248,-58.4789531,Núñez y Balbín,,,
3093488396,-34.5565754,-58.4789259,Núñez y Balbín,,,
3093488397,-34.5527008,-58.4720957,Núñez y Crámer,,,
3093488398,-34.5527416,-58.472067,Núñez y Crámer,,,
3093488399,-34.5545646,-58.4754106,Núñez y Freire,,,
3093488400,-34.5546087,-58.4753653,Núñez y Freire,,,
3093488401,-34.5517531,-58.4704059,Núñez y Moldes,,,
3093488402,-34.5518319,-58.4703591,Núñez y Moldes,,,
3093488405,-34.5555335,-58.4771807,Núñez y Superí,,,
3093488406,-34.5555902,-58.4771399,Núñez y Superí,,,
3093488413,-34.5511847,-58.4977035,Valdenegro y Pico,,,
3093488414,-34.5512048,-58.4977568,Valdenegro y Pico,,,
3094078333,-34.6736349,-58.5008063,Avenida General Paz,,,
3094079929,-34.673552,-58.500862,Avenida General Paz,,,
3094079930,-34.6737474,-58.5010021,Eva Perón y Gral.Paz,,,
3095044422,-34.5525081,-58.489144,Avenida Ruiz Huidobro,,,
3095044423,-34.5525274,-58.4891956,Avenida Ruiz Huidobro,,,
3095044424,-34.5549184,-58.4834435,Balbín y Manzanares,,,
3095044425,-34.5549661,-58.4834818,Balbín y Manzanares,,,
3095044426,-34.5507452,-58.4945401,Deheza y Acha,,,
3095044427,-34.5507901,-58.4945032,Deheza y Acha,,,
3095044430,-34.5508855,-58.4902793,Holmberg y Ramallo,,,
3095044431,-34.5509107,-58.4903308,Holmberg y Ramallo,,,
3095044434,-34.5525699,-58.4748274,Larralde y Pinto,,,
3095044435,-34.5526134,-58.4747958,Larralde y Pinto,,,
3095044436,-34.5554878,-58.4801054,Larralde 3700,,,
3095044437,-34.55553,-58.4800753,Larralde 3700,,,
3095044438,-34.5499015,-58.4700066,Larralde y Amenábar,,,
3095044439,-34.5499522,-58.469971,Larralde y Amenábar,,,
3095044440,-34.5513193,-58.4725356,Larralde y Crámer,,,
3095044441,-34.551356,-58.4725051,Larralde y Crámer,,,
3095044442,-34.5539744,-58.477377,Larralde 3400,,,
3095044443,-34.5540125,-58.4773431,Larralde 3400,,,
3098155815,-34.5511061,-58.4914369,Donado y Ramallo,,,
3098155816,-34.5511317,-58.4915015,Donado y Ramallo,,,
3098155817,-34.5479881,-58.4598471,Pedraza y 11 de Septiembre,,,
3098155818,-34.5480339,-58.4598241,Pedraza y 11 de Septiembre,,,
3098155820,-34.5560115,-58.4813561,Plazoleta Czetz,,,
3104499041,-34.5613775,-58.4641074,Monroe,,,
3104507690,-34.5491991,-58.5006526,General Paz,,,
3104509140,-34.5576241,-58.4668348,Avenida Crámer,,,
3104509141,-34.5580259,-58.467308,Avenida Crámer,,,
3104509142,-34.5595642,-58.4656428,Crámer y Rivera,,,
3104509406,-34.5576759,-58.4669409,Avenida Crámer,,,
3104509857,-34.5621648,-58.4639938,Avenida Crámer,,,
3104510396,-34.5598145,-58.4626153,Monroe y Moldes,,,
3104511144,-34.5609673,-58.461992,B. Encalada y Moldes,,,
3104624132,-34.5596033,-58.4656957,Crámer y Rivera,,,
3104624133,-34.5598676,-58.4625679,Monroe y Moldes,,,
3104655929,-34.5576775,-58.4667997,Avenida Crámer,,,
3104655930,-34.5621181,-58.4640264,Avenida Crámer,,,
3104656029,-34.5577307,-58.4669021,Avenida Crámer,,,
3104656129,-34.5579619,-58.4673446,Avenida Crámer,,,
3104656529,-34.5614325,-58.4641783,Monroe,,,
3104656530,-34.5609357,-58.4620185,B. Encalada y Moldes,,,
3104945610,-34.5388064,-58.477187,Puente Saavedra,,,
3108323742,-34.5428301,-58.4776911,Fundación Hosp. Materno Infantil,,,
3108329221,-34.5456261,-58.484389,Superí y Deheza,,,
3108330379,-34.5442129,-58.4818369,Deheza y Pinto,,,
3108330622,-34.5432519,-58.4822042,Pico y Pinto,,,
3108359379,-34.5424676,-58.4743012,Parroquia San Isidro,,,
3108359380,-34.5427859,-58.4777092,Fundación Hosp. Materno Infantil,,,
3108371755,-34.5456492,-58.4844331,Superí y Deheza,,,
3108371756,-34.5441749,-58.4818732,Deheza y Pinto,,,
3108395829,-34.542485,-58.4743425,Parroquia San Isidro,,,
3108395831,-34.5432928,-58.482187,Pico y Pinto,,,
3108708629,-34.5442137,-58.4839822,Pico y Conde,,,
3108708729,-34.5441594,-58.4840223,Pico y Conde,,,
3110486624,-34.5493362,-58.4913674,Holmberg y Deheza,,,
3110486625,-34.5493641,-58.4914077,Holmberg y Deheza,,,
3110509367,-34.6077573,-58.4072529,Once,,,
3110509368,-34.6077662,-58.407462,Once,,,
3110509371,-34.5980898,-58.4037298,Avenida Córdoba,,,
3110509372,-34.5981223,-58.4036268,Avenida Córdoba,,,
3110509373,-34.5962886,-58.4031557,Pueyrredón y Marcelo T.de Alvear,,,
3110509374,-34.5963166,-58.4030527,Pueyrredón y Marcelo T.de Alvear,,,
3110509375,-34.5963555,-58.4031831,Pueyrredón y Marcelo T.de Alvear,,,
3110509376,-34.5963825,-58.4030736,Pueyrredón y Marcelo T.de Alvear,,,
3110509377,-34.596973,-58.4033766,Pueyrredón y Mansilla,,,
3110509378,-34.6061613,-58.4059484,Pueyrredón y Sarmiento,,,
3110509379,-34.6061778,-58.4058652,Pueyrredón y Sarmiento,,,
3110509380,-34.6060322,-58.4059111,Pueyrredón y Valentín Gómez,,,
3110509381,-34.6060489,-58.4058335,Pueyrredón y Valentín Gómez,,,
3110509382,-34.594352,-58.4027079,Santa Fe y Pueyrredón,,,
3110509383,-34.5944209,-58.4027305,Santa Fe y Pueyrredón,,,
3111528108,-34.7442651,-58.3951681,Est. Banfield,,,
3111528109,-34.7443987,-58.3951884,Est. Banfield,,,
3111528110,-34.7445106,-58.3952027,Est. Banfield,,,
3111528111,-34.7446426,-58.3952128,Est. Banfield,,,
3111528112,-34.7447962,-58.3952332,Est. Banfield,,,
3111624729,-34.627497,-58.3810286,Plaza Constitución,,,
3111624730,-34.6274818,-58.3805068,Plaza Constitución,,,
3111624731,-34.6274895,-58.3807719,Plaza Constitución,,,
3113854207,-34.6476511,-58.5067624,Larrazábal y Emilio Castro,,,
3113854208,-34.6476907,-58.5068125,Larrazábal y Emilio Castro,,,
3113854209,-34.6478904,-58.5063495,Larrazábal y Emilio Castro,,,
3113854210,-34.6479229,-58.5064002,Larrazábal y Emilio Castro,,,
3113854211,-34.6428937,-58.5232306,Cosquín y Bosch,,,
3113854212,-34.6429041,-58.5232968,Cosquín y Bosch,,,
3113854213,-34.6455287,-58.5200792,L. de la Torre,,,
3113854214,-34.6455745,-58.5200747,L. de la Torre,,,
3113854215,-34.6450092,-58.5101479,Larrazábal y Acassuso,,,
3113854216,-34.6450475,-58.5101957,Larrazábal y Acassuso,,,
3113854217,-34.6451758,-58.5097161,Larrazábal y Acassuso,,,
3113854218,-34.6452048,-58.5097497,Larrazábal y Acassuso,,,
3113854219,-34.6416213,-58.5144765,Larrazábal y Tonelero,,,
3113854220,-34.6416404,-58.5145088,Larrazábal y Tonelero,,,
3113854222,-34.643427,-58.512025,Plaza Coronel Irigoyen,,,
3113854223,-34.6434335,-58.512035,Plaza Coronel Irigoyen,,,
3113854224,-34.6447862,-58.5230008,Plaza Sarmiento,,,
3113854225,-34.6447864,-58.5230925,Plaza Sarmiento,,,
3113854226,-34.6423698,-58.5156517,Tonelero y Pieres,,,
3113854227,-34.6424129,-58.5156158,Tonelero y Pieres,,,
3114082065,-34.5356844,-58.4682253,Estación Rivadavia,,,
3114082068,-34.6443097,-58.5112607,Patrón y Larrazábal,,,
3114082069,-34.6443555,-58.5112082,Patrón y Larrazábal,,,
3114082070,-34.6443756,-58.5182757,Tuyutí y Tonelero,,,
3114082071,-34.6444214,-58.5182709,Tuyutí y Tonelero,,,
3114186659,-34.6768976,-58.3662934,Alto Avellaneda,,,
3114186660,-34.6768514,-58.3663526,Alto Avellaneda,,,
3114186662,-34.6768852,-58.3663949,Alto Avellaneda,,,
3114186663,-34.6782803,-58.3676059,Güemes y Larralde,,,
3115192947,-34.5631396,-58.43715,Estación Lisandro de la Torre,,,
3115195264,-34.5614703,-58.4439489,Libertador y Virrey del Pino,,,
3123439693,-34.5550929,-58.4908784,Balbín y Mariano Acha,,,
3123439694,-34.5834476,-58.4045489,Las Heras y Billinghurst,,,
3132107929,-34.5526312,-58.4903469,Avenida Ruiz Huidobro,,,
3132107930,-34.5526545,-58.490398,Avenida Ruiz Huidobro,,,
3132131409,-34.5507529,-58.4686119,Núñez y Ciudad de La Paz,,,
3132131410,-34.550811,-58.4685779,Núñez y Ciudad de La Paz,,,
3132135741,-34.5503654,-58.4644889,Pedraza y Cuba,,,
3132154820,-34.5147817,-58.5202745,San Lorenzo,,,
3132410611,-34.5108696,-58.526352,Panamericana Oeste,,,
3132410616,-34.5568056,-58.4790362,Balbín y Núñez,,,
3132421029,-34.51083,-58.5263709,Panamericana Oeste,,,
3134580680,-34.5988751,-58.4395857,Malabia y Corrientes,,,
3134580681,-34.5987634,-58.4370465,Scalabrini Ortiz y Ramírez de Velasco,,,
3138523305,-34.6350141,-58.5287653,General Paz y Juan B. Justo,,,
3138523306,-34.635037,-58.5286969,General Paz y Juan B. Justo,,,
3143749885,-34.6395694,-58.5312509,Puente Liniers,,,
3143749886,-34.6395803,-58.5314604,Puente Liniers,,,
3143749887,-34.6396114,-58.5318347,Puente Liniers,,,
3143778829,-34.6395513,-58.5318387,Puente Liniers,,,
3144615830,-34.5551538,-58.4475807,Mendoza y Migueletes,,,
3144622229,-34.5552001,-58.4475442,Mendoza y Migueletes,,,
3146519962,-34.6783175,-58.3675683,Güemes y Larralde,,,
3148415474,-34.6349747,-58.531372,General Paz,,,
3148465620,-34.6349278,-58.5313745,General Paz,,,
3153590291,-34.5736799,-58.4323371,Avenida Dorrego,,,
3153590296,-34.5722195,-58.4337647,Regimiento de Granaderos,,,
3153592297,-34.5720524,-58.4339162,Regimiento de Granaderos,,,
3153624226,-34.5737364,-58.432399,Avenida Dorrego,,,
3153624229,-34.5721008,-58.4339835,Regimiento de Granaderos,,,
3153624230,-34.5722827,-58.4338059,Regimiento de Granaderos,,,
3156508013,-34.6267879,-58.4893028,Avenida Juan B. Justo,,,
3156523967,-34.6122988,-58.5079623,Segurola y Nogoyá,,,
3156525454,-34.6284902,-58.4954478,Beláustegui y Carrasco,,,
3156538511,-34.6122083,-58.5080409,Segurola y Nogoyá,,,
3156549448,-34.6161605,-58.5140824,Nogoyá y Bermúdez,,,
3156554504,-34.6165672,-58.5128603,Baigorria y Bermúdez,,,
3156557831,-34.6168251,-58.5128321,Bermúdez y Baigorria,,,
3156570613,-34.6165161,-58.5162025,Cervantes y Melincué,,,
3156576851,-34.6186516,-58.5133816,Cervantes y Sastre,,,
3156839023,-34.5988447,-58.4850046,Nogoyá y Artigas,,,
3156952033,-34.6197609,-58.5178428,Lópe de Vega,,,
3156974039,-34.6200446,-58.5168403,Lópe de Vega,,,
3156983828,-34.6199607,-58.5173765,L. de Vega 2200,,,
3156985384,-34.6200823,-58.5172226,L. de Vega y Baigorria,,,
3156999451,-34.6202622,-58.5167702,L. de Vega y Baigorria,,,
3157013749,-34.6212801,-58.5156427,L. de Vega y Groussac,,,
3157019005,-34.6211241,-58.5158652,L. de Vega y Sastre,,,
3158799163,-34.5606349,-58.505971,Tecnópolis,,,
3158799164,-34.5606624,-58.5059006,Tecnópolis,,,
3158799165,-34.5607463,-58.5060205,Tecnópolis,,,
3158799166,-34.5607804,-58.5059525,Tecnópolis,,,
3169552759,-34.5983,-58.4407868,Acevedo y Corrientes,,,
3171541425,-34.5639252,-58.4623398,Mendoza y Crámer,,,
3171541426,-34.6000306,-58.381718,Córdoba,,,
3171541427,-34.6101864,-58.381167,Hipólito Yrigoyen,,,
3171541428,-34.5612445,-58.4577908,Mendoza y Cabildo,,,
3171541429,-34.6161887,-58.3808841,México,,,
3171541430,-34.6059028,-58.3814163,Obelisco Sur,,,
3171541432,-34.5961383,-58.3820264,Santa Fe,,,
3173678665,-34.5930024,-58.3887632,Plaza Vicente López,,,
3174035701,-34.5606478,-58.4591616,Olazábal y Ciudad de la Paz,,,
3174058861,-34.5627942,-58.4627571,Olazábal y Crámer,,,
3174058863,-34.5568403,-58.4790551,Balbín y Núñez,,,
3174058864,-34.5994662,-58.3819137,Córdoba,,,
3174058865,-34.5491662,-58.500413,General Paz,,,
3174058866,-34.6103722,-58.3813274,Hipólito Yrigoyen,,,
3174058867,-34.6155647,-58.3810786,México,,,
3174058868,-34.6052423,-58.3816211,Obelisco Sur,,,
3174058869,-34.5617146,-58.4609486,Olazábal y Moldes,,,
3174058870,-34.5958719,-58.3822414,Santa Fe,,,
3174111013,-34.5552851,-58.4939961,Balbín y Miller,,,
3174150763,-34.6268304,-58.4893598,Avenida Juan B. Justo,,,
3174150764,-34.6199105,-58.5173307,L. de Vega 2200,,,
3174150765,-34.6200378,-58.5171623,L. de Vega y Baigorria,,,
3174150766,-34.6203033,-58.5168156,L. de Vega y Baigorria,,,
3174150767,-34.6212366,-58.5156027,L. de Vega y Groussac,,,
3174150768,-34.6210655,-58.5158211,L. de Vega y Sastre,,,
3174150769,-34.6197308,-58.5178865,Lópe de Vega,,,
3174150771,-34.5988917,-58.484968,Nogoyá y Artigas,,,
3174150772,-34.6161262,-58.514127,Nogoyá y Bermúdez,,,
3174150777,-34.6121855,-58.5080009,Segurola y Nogoyá,,,
3174150778,-34.6122762,-58.5079207,Segurola y Nogoyá,,,
3174150779,-34.5980454,-58.4832829,Veterinarias,,,
3174759619,-34.5928145,-58.3797933,Juncal y Suipacha,,,
3175841061,-34.6164845,-58.5161684,Cervantes y Melincué,,,
3175841161,-34.6186155,-58.5133473,Cervantes y Sastre,,,
3175841362,-34.6168644,-58.5128772,Bermúdez y Baigorria,,,
3175906461,-34.5585029,-58.4501751,Barrancas de Belgrano,,,
3175906462,-34.5595174,-58.4523917,Juramento y O'Higgins,,,
3181932961,-34.6285332,-58.4954264,Beláustegui y Carrasco,,,
3183960461,-34.6613656,-58.5165657,General Paz,,,
3183960561,-34.661426,-58.5165047,General Paz,,,
3186071092,-34.5903264,-58.4358685,Córdoba y Uriarte,,,
3186072099,-34.5945463,-58.4302641,Scalabrini Ortiz y Córdoba,,,
3186598591,-34.6028917,-58.4051583,Pueyrredón y Lavalle,,,
3186598592,-34.6100545,-58.4066229,Plaza Miserere,,,
3186646561,-34.6029051,-58.405064,Pueyrredón y Lavalle,,,
3186646562,-34.6101586,-58.4066086,Plaza Miserere,,,
3187973763,-34.5599743,-58.4718556,Balbín y Congreso,,,
3187973764,-34.5600214,-58.471878,Balbín y Congreso,,,
3187973765,-34.5601304,-58.4710994,Avenida Congreso,,,
3187973766,-34.5602105,-58.4711447,Avenida Congreso,,,
3187973767,-34.5619875,-58.4669604,Balbín y Monroe,,,
3187973768,-34.562084,-58.4670332,Balbín y Monroe,,,
3187973769,-34.5587743,-58.474723,Balbín e Iberá,,,
3187973770,-34.5588223,-58.4747434,Balbín e Iberá,,,
3187973771,-34.5589754,-58.4738792,Balbín e Iberá,,,
3187973772,-34.5590229,-58.4739039,Balbín e Iberá,,,
3187973773,-34.55609,-58.4806444,Balbín y Larralde,,,
3187973774,-34.5561404,-58.4806682,Balbín y Larralde,,,
3187973775,-34.5566369,-58.4797152,Balbín y Núñez,,,
3187973776,-34.556691,-58.479746,Balbín y Núñez,,,
3187973777,-34.5631865,-58.4641066,Balbín y Olazábal,,,
3187973778,-34.5632621,-58.4641515,Balbín y Olazábal,,,
3187973779,-34.5575041,-58.4777516,Balbín y Pedraza,,,
3187973780,-34.5575533,-58.4777924,Balbín y Pedraza,,,
3187973781,-34.5610005,-58.4692789,Balbín y Rivera,,,
3187973782,-34.5610971,-58.4693168,Balbín y Rivera,,,
3187973783,-34.5613026,-58.4683453,Balbín y Rivera,,,
3187973784,-34.5613882,-58.4683818,Balbín y Rivera,,,
3187973785,-34.5623577,-58.4658651,Avenida Monroe,,,
3187973786,-34.5624223,-58.4658926,Avenida Monroe,,,
3187973787,-34.5580311,-58.4761319,Balbín y Roque Pérez,,,
3187973788,-34.5580755,-58.4761406,Balbín y Roque Pérez,,,
3187973791,-34.5559579,-58.4813224,Plazoleta Czetz,,,
3187992019,-34.5600679,-58.4717652,Balbín y Congreso,,,
3187992020,-34.5551205,-58.491457,Mariano,,,
3187992021,-34.5551901,-58.4914416,Balbín y Mariano Acha,,,
3187992022,-34.5535608,-58.4972367,Balbín y Arias,,,
3187992023,-34.5535984,-58.4972841,Balbín y Arias,,,
3187992024,-34.5552268,-58.495462,Balbín y Galván,,,
3187992025,-34.5553077,-58.4954517,Balbín y Galván,,,
3187992026,-34.5553438,-58.4939886,Balbín y Miller,,,
3187992027,-34.5520356,-58.4984652,Balbín y Pico,,,
3187992028,-34.5520919,-58.4985348,Balbín y Pico,,,
3189430569,-34.5964675,-58.3819952,Santa Fe,,,
3189430570,-34.5962272,-58.3821913,Santa Fe,,,
3189499133,-34.5928052,-58.3804523,Juncal y Suipacha,,,
3189500596,-34.5928139,-58.379612,Juncal y Suipacha,,,
3189520010,-34.5928295,-58.3837136,Juncal y Libertad,,,
3189520012,-34.5953487,-58.3857617,Talcahuano y Santa Fe,,,
3189520013,-34.5953532,-58.3858094,Talcahuano y Santa Fe,,,
3189520014,-34.5986892,-58.3855111,Talcahuano y Paraguay,,,
3189520020,-34.6021068,-58.3953479,Tucumán y Ayacucho,,,
3189535574,-34.6076675,-58.3872267,Mitre y Paraná,,,
3189535575,-34.60771,-58.3872262,Mitre y Paraná,,,
3189535576,-34.607989,-58.3922771,Avenida Callao,,,
3189535577,-34.6080055,-58.3925925,Mitre y Callao,,,
3189535578,-34.6080351,-58.3922745,Avenida Callao,,,
3189535579,-34.6080509,-58.3925892,Mitre y Callao,,,
3189535580,-34.6083119,-58.3969897,Mitre y Junin,,,
3189535581,-34.6083506,-58.3969855,Mitre y Junin,,,
3189535582,-34.6078207,-58.3894866,Mitre y Montevideo,,,
3189535583,-34.6078598,-58.3894851,Mitre y Montevideo,,,
3189535584,-34.6087039,-58.4036121,Mitre y Paso,,,
3189535585,-34.608746,-58.4036105,Mitre y Paso,,,
3189535586,-34.6084862,-58.3994667,Mitre y Pasteur,,,
3189535587,-34.6085589,-58.399457,Mitre y Pasteur,,,
3189535588,-34.6080636,-58.3936737,Mitre y Riobamba,,,
3189535589,-34.6081044,-58.393667,Mitre y Riobamba,,,
3189535591,-34.607525,-58.3844222,Mitre al 1200,,,
3190928143,-34.6052766,-58.3836181,Libertad y Sarmiento,,,
3190928144,-34.6052733,-58.3835877,Libertad y Sarmiento,,,
3190928145,-34.595987,-58.3842136,Libertad y Santa Fe,,,
3190928146,-34.595993,-58.3842581,Libertad y Santa Fe,,,
3190928147,-34.6045882,-58.3836251,Libertad y Corrientes,,,
3190928148,-34.6045909,-58.3836701,Libertad y Corrientes,,,
3190928149,-34.6032901,-58.3837243,Libertad y Corrientes,,,
3190928150,-34.6032951,-58.3837691,Libertad y Corrientes,,,
3190928151,-34.6029961,-58.3837334,Libertad y Lavalle,,,
3190928152,-34.6029982,-58.3837858,Libertad y Lavalle,,,
3190928155,-34.5999009,-58.383947,Plaza Lavalle,,,
3190928156,-34.5999076,-58.3840003,Plaza Lavalle,,,
3190928157,-34.5974066,-58.3840649,Plaza Libertad,,,
3190928158,-34.5974135,-58.3841382,Plaza Libertad,,,
3190928159,-34.5952527,-58.380323,Santa Fe y Suipacha,,,
3190928160,-34.5952597,-58.3804049,Santa Fe y Suipacha,,,
3190928561,-34.5952963,-58.3808105,Santa Fe y Suipacha,,,
3190928562,-34.595331,-58.3803066,Santa Fe y Suipacha,,,
3190928563,-34.5953422,-58.3803963,Santa Fe y Suipacha,,,
3190928564,-34.5953896,-58.3807986,Santa Fe y Suipacha,,,
3190928566,-34.6029367,-58.3837404,Libertad y Lavalle,,,
3193737362,-34.5700927,-58.5087567,Constituyentes y General Paz,,,
3193763861,-34.5701672,-58.5088235,Constituyentes y General Paz,,,
3193837361,-34.5539839,-58.443178,Juramento y Cazadores,,,
3193837461,-34.553939,-58.4432232,Juramento y Cazadores,,,
3195553865,-34.6400854,-58.5388447,Rivadavia y Alianza,,,
3195568832,-34.6401751,-58.5465722,Rivadavia y Zapiola,,,
3195568835,-34.6401498,-58.5388311,Rivadavia y Alianza,,,
3195573361,-34.64014,-58.5465714,Rivadavia y Zapiola,,,
3197016666,-34.5420294,-58.4453917,Ciudad Universitaria,,,
3197396963,-34.5980105,-58.4233693,Gascón y Córdoba,,,
3202559389,-34.6091318,-58.3908976,Congreso,,,
3202559390,-34.6092189,-58.3908746,Congreso,,,
3202559401,-34.6099948,-58.405515,Once,,,
3202559402,-34.6100838,-58.4055003,Once,,,
3202559403,-34.6091673,-58.4059162,Plaza Miserere,,,
3202559404,-34.6091734,-58.4060131,Plaza Miserere,,,
3202559406,-34.6077946,-58.3719282,Plaza de Mayo,,,
3202559407,-34.6078616,-58.3719175,Plaza de Mayo,,,
3202559408,-34.6092638,-58.3941764,Rivadavia y Ayacucho,,,
3202559409,-34.6092902,-58.3945068,Rivadavia y Ayacucho,,,
3202559410,-34.6093335,-58.3941703,Rivadavia y Ayacucho,,,
3202559411,-34.6093528,-58.3944957,Rivadavia y Ayacucho,,,
3202559412,-34.609632,-58.3988881,Rivadavia y Pasteur,,,
3202559413,-34.6096843,-58.3988808,Rivadavia y Pasteur,,,
3202559414,-34.6098156,-58.4023442,Rivadavia y Larrea,,,
3202559415,-34.6098384,-58.4026795,Rivadavia y Larrea,,,
3202559416,-34.6099066,-58.4023392,Rivadavia y Larrea,,,
3202559418,-34.6096754,-58.3997939,Rivadavia y Pasteur,,,
3202559419,-34.6097518,-58.399778,Rivadavia y Pasteur,,,
3202559422,-34.6122308,-58.3859869,Moreno y San José,,,
3202559423,-34.6122605,-58.3859827,Moreno y San José,,,
3203889176,-34.591855,-58.3748513,Retiro (Mitre),,,
3203889177,-34.5925502,-58.3761021,Retiro,,,
3203889178,-34.5923315,-58.3764136,Retiro,,,
3203890355,-34.592471,-58.3762092,Retiro,,,
3203890401,-34.5917037,-58.374736,Retiro (Mitre),,,
3203976147,-34.5975839,-58.3715729,Avenida Córdoba,,,
3203976148,-34.5976108,-58.3716475,Avenida Córdoba,,,
3203976158,-34.592158,-58.3762586,Retiro,,,
3203976159,-34.5923312,-58.3760987,Retiro,,,
3207152461,-34.5785786,-58.4690721,Avenida Los Incas,,,
3207152462,-34.5786479,-58.4690863,Avenida Los Incas,,,
3207152465,-34.6109568,-58.5202868,Beiró y Bermúdez,,,
3207152468,-34.5776017,-58.4680256,Los Incas y Plaza,,,
3207152469,-34.5776381,-58.4679938,Los Incas y Plaza,,,
3209959361,-34.6305202,-58.5264744,Madero y Lascano,,,
3210047561,-34.5766915,-58.4294138,Terminal Plaza Falucho,,,
3210047761,-34.5767235,-58.4293773,Terminal Plaza Falucho,,,
3211831103,-34.6179653,-58.5299211,Irigoyen y Beiró,,,
3211831104,-34.5862476,-58.398744,Biblioteca Nacional,,,
3211877084,-34.618005,-58.5299525,Irigoyen y Beiró,,,
3211877085,-34.5861703,-58.3986443,Biblioteca Nacional,,,
3212575274,-34.5817925,-58.4155898,Las Heras y Siria,,,
3212578034,-34.5633419,-58.4431188,Luis María Campos y Zabala,,,
3212579734,-34.5817844,-58.4157449,Las Heras y Siria,,,
3212582151,-34.5994172,-58.404142,Pueyrredón y San Luis,,,
3212582247,-34.5820091,-58.4120577,Avenida Scalabrini Ortiz,,,
3212582248,-34.5835439,-58.4024451,Las Heras 2900,,,
3212582430,-34.5868443,-58.3980268,Las Heras y Pueyrredón,,,
3212583061,-34.5828075,-58.4087514,Parque Las Heras,,,
3212583569,-34.600276,-58.4044215,Pueyrredón y San Luis,,,
3212584019,-34.6021248,-58.4049704,Pueyrredón y Tucumán,,,
3212586271,-34.6052972,-58.4057591,Avenida Corrientes,,,
3212841142,-34.5632819,-58.4430643,Luis María Campos y Zabala,,,
3212841143,-34.5816706,-58.4155477,Las Heras y Lafinur,,,
3212841144,-34.58166,-58.4157355,Las Heras y Siria,,,
3212841145,-34.5818721,-58.4120552,Avenida Scalabrini Ortiz,,,
3212841147,-34.5826838,-58.4087181,Parque Las Heras,,,
3212841148,-34.5829948,-58.4077246,Parque Las Heras,,,
3212841149,-34.5831069,-58.4077594,Parque Las Heras,,,
3212841151,-34.599435,-58.4040447,Pueyrredón y San Luis,,,
3212841152,-34.6003067,-58.4043243,Pueyrredón y San Luis,,,
3212841153,-34.602136,-58.4048863,Pueyrredón y Tucumán,,,
3212841154,-34.6053139,-58.4056654,Avenida y Corrientes,,,
3212841156,-34.5834278,-58.4024474,Las Heras 2900,,,
3212841157,-34.5768146,-58.4289983,Regimiento de Patricios,,,
3213505861,-34.6110119,-58.5202263,Beiró y Bermúdez,,,
3213505862,-34.5950678,-58.3781717,Plaza San Martín,,,
3213505863,-34.5958238,-58.3912621,Santa Fe y Rodríguez Peña,,,
3215146408,-34.6188715,-58.5302558,General Paz y Beiró,,,
3215149361,-34.6188745,-58.5303193,General Paz y Beiró,,,
3217327500,-34.5697543,-58.4362973,Hospital Militar,,,
3217327501,-34.5680984,-58.433845,Matienzo y Soldado de la Independencia,,,
3217327588,-34.5681249,-58.4376362,Solar de la Abadía,,,
3217335961,-34.5680609,-58.4375356,Solar de la Abadía,,,
3217410161,-34.5680663,-58.4338801,Matienzo y Soldado de la Independencia,,,
3217410162,-34.569701,-58.436223,Hospital Militar,,,
3219578249,-34.5309821,-58.4685421,Laprida,,,
3219578250,-34.5332036,-58.4679087,Carrefour,,,
3219588914,-34.5335253,-58.468227,Libertador y Aristóbulo del Valle,,,
3219614663,-34.5332079,-58.4679863,Carrefour,,,
3219615361,-34.5335086,-58.4681637,Libertador y Aristóbulo del Valle,,,
3219615461,-34.5310008,-58.4686197,Laprida,,,
3219732140,-34.6839999,-58.4648889,Barrio Savio,,,
3220258962,-34.6396764,-58.5414001,Ciudadela,,,
3220258963,-34.6397311,-58.5413989,Ciudadela,,,
3220275561,-34.6397766,-58.5416536,Ciudadela,,,
3220275661,-34.6396806,-58.5418267,Ciudadela,,,
3220275761,-34.6397351,-58.541828,Ciudadela,,,
3220275762,-34.6397334,-58.5416494,Ciudadela,,,
3225315521,-34.530685,-58.4684048,Laprida y Libertador,,,
3225801908,-34.5269782,-58.5461581,Santiago del Estero 6499,,,
